{
"type": "FeatureCollection",
"crs": { "type": "name", "properties": { "name": "urn:ogc:def:crs:OGC:1.3:CRS84" } },
"features": [
{ "type": "Feature", "properties": { "FEATURE_NAME": "clover camp", "FEATURE_CLASS": "Locale", "STATE_ALPHA": "AZ", "STATE_NUMERIC": 4, "COUNTY_NAME": "Graham", "COUNTY_NUMERIC": 9.0, "PRIM_LAT_DEC": 33.448665, "PRIM_LONG_DEC": -109.8642557, "ELEV_IN_M": 1840.0, "ELEV_IN_FT": 6037.0, "MAP_NAME": "Natanes Mountains NE" }, "geometry": { "type": "Point", "coordinates": [ -109.8642557, 33.448665 ] } },
{ "type": "Feature", "properties": { "FEATURE_NAME": "clover creek", "FEATURE_CLASS": "Stream", "STATE_ALPHA": "AZ", "STATE_NUMERIC": 4, "COUNTY_NAME": "Graham", "COUNTY_NUMERIC": 9.0, "PRIM_LAT_DEC": 33.4883867, "PRIM_LONG_DEC": -109.903146, "ELEV_IN_M": 1779.0, "ELEV_IN_FT": 5837.0, "MAP_NAME": "Natanes Mountains NW" }, "geometry": { "type": "Point", "coordinates": [ -109.903146, 33.4883867 ] } },
{ "type": "Feature", "properties": { "FEATURE_NAME": "clover spring tank", "FEATURE_CLASS": "Reservoir", "STATE_ALPHA": "AZ", "STATE_NUMERIC": 4, "COUNTY_NAME": "Gila", "COUNTY_NUMERIC": 7.0, "PRIM_LAT_DEC": 34.025704, "PRIM_LONG_DEC": -111.1033231, "ELEV_IN_M": 1584.0, "ELEV_IN_FT": 5197.0, "MAP_NAME": "Buzzard Roost Mesa" }, "geometry": { "type": "Point", "coordinates": [ -111.1033231, 34.025704 ] } },
{ "type": "Feature", "properties": { "FEATURE_NAME": "clover tank", "FEATURE_CLASS": "Reservoir", "STATE_ALPHA": "AZ", "STATE_NUMERIC": 4, "COUNTY_NAME": "Gila", "COUNTY_NUMERIC": 7.0, "PRIM_LAT_DEC": 33.8509816, "PRIM_LONG_DEC": -110.2577249, "ELEV_IN_M": 1563.0, "ELEV_IN_FT": 5128.0, "MAP_NAME": "Carrizo SE" }, "geometry": { "type": "Point", "coordinates": [ -110.257724900000014, 33.8509816 ] } },
{ "type": "Feature", "properties": { "FEATURE_NAME": "lovers leap", "FEATURE_CLASS": "Mine", "STATE_ALPHA": "AZ", "STATE_NUMERIC": 4, "COUNTY_NAME": "Cochise", "COUNTY_NUMERIC": 3.0, "PRIM_LAT_DEC": 31.422322, "PRIM_LONG_DEC": -109.9317415, "ELEV_IN_M": 1707.0, "ELEV_IN_FT": 5600.0, "MAP_NAME": "Bisbee" }, "geometry": { "type": "Point", "coordinates": [ -109.9317415, 31.422322 ] } },
{ "type": "Feature", "properties": { "FEATURE_NAME": "loves camp", "FEATURE_CLASS": "Locale", "STATE_ALPHA": "AZ", "STATE_NUMERIC": 4, "COUNTY_NAME": "Mohave", "COUNTY_NUMERIC": 15.0, "PRIM_LAT_DEC": 34.3030751, "PRIM_LONG_DEC": -113.5757633, "ELEV_IN_M": 395.0, "ELEV_IN_FT": 1296.0, "MAP_NAME": "Artillery Peak" }, "geometry": { "type": "Point", "coordinates": [ -113.5757633, 34.3030751 ] } },
{ "type": "Feature", "properties": { "FEATURE_NAME": "loves mine", "FEATURE_CLASS": "Mine", "STATE_ALPHA": "AZ", "STATE_NUMERIC": 4, "COUNTY_NAME": "Mohave", "COUNTY_NUMERIC": 15.0, "PRIM_LAT_DEC": 34.3266856, "PRIM_LONG_DEC": -113.6038201, "ELEV_IN_M": 490.0, "ELEV_IN_FT": 1608.0, "MAP_NAME": "Artillery Peak" }, "geometry": { "type": "Point", "coordinates": [ -113.6038201, 34.3266856 ] } },
{ "type": "Feature", "properties": { "FEATURE_NAME": "spendlove tank", "FEATURE_CLASS": "Reservoir", "STATE_ALPHA": "AZ", "STATE_NUMERIC": 4, "COUNTY_NAME": "Mohave", "COUNTY_NUMERIC": 15.0, "PRIM_LAT_DEC": 36.7431572, "PRIM_LONG_DEC": -113.2341608, "ELEV_IN_M": 1597.0, "ELEV_IN_FT": 5239.0, "MAP_NAME": "Antelope Knoll" }, "geometry": { "type": "Point", "coordinates": [ -113.2341608, 36.7431572 ] } },
{ "type": "Feature", "properties": { "FEATURE_NAME": "upper clover tank", "FEATURE_CLASS": "Reservoir", "STATE_ALPHA": "AZ", "STATE_NUMERIC": 4, "COUNTY_NAME": "Graham", "COUNTY_NUMERIC": 9.0, "PRIM_LAT_DEC": 33.4062568, "PRIM_LONG_DEC": -109.8429923, "ELEV_IN_M": 1919.0, "ELEV_IN_FT": 6296.0, "MAP_NAME": "Natanes Mountains NE" }, "geometry": { "type": "Point", "coordinates": [ -109.8429923, 33.4062568 ] } },
{ "type": "Feature", "properties": { "FEATURE_NAME": "lovelace tank", "FEATURE_CLASS": "Reservoir", "STATE_ALPHA": "AZ", "STATE_NUMERIC": 4, "COUNTY_NAME": "Yavapai", "COUNTY_NUMERIC": 25.0, "PRIM_LAT_DEC": 34.7805268, "PRIM_LONG_DEC": -113.2255473, "ELEV_IN_M": 1312.0, "ELEV_IN_FT": 4304.0, "MAP_NAME": "Burro Mesa" }, "geometry": { "type": "Point", "coordinates": [ -113.2255473, 34.7805268 ] } },
{ "type": "Feature", "properties": { "FEATURE_NAME": "j w spendlove reservoir", "FEATURE_CLASS": "Reservoir", "STATE_ALPHA": "AZ", "STATE_NUMERIC": 4, "COUNTY_NAME": "Mohave", "COUNTY_NUMERIC": 15.0, "PRIM_LAT_DEC": 36.5347903, "PRIM_LONG_DEC": -113.2660881, "ELEV_IN_M": 1847.0, "ELEV_IN_FT": 6060.0, "MAP_NAME": "Russell Spring" }, "geometry": { "type": "Point", "coordinates": [ -113.2660881, 36.5347903 ] } },
{ "type": "Feature", "properties": { "FEATURE_NAME": "love", "FEATURE_CLASS": "Populated Place", "STATE_ALPHA": "AZ", "STATE_NUMERIC": 4, "COUNTY_NAME": "La Paz", "COUNTY_NUMERIC": 12.0, "PRIM_LAT_DEC": 33.8522523, "PRIM_LONG_DEC": -113.4657577, "ELEV_IN_M": 601.0, "ELEV_IN_FT": 1972.0, "MAP_NAME": "Socorro Peak" }, "geometry": { "type": "Point", "coordinates": [ -113.465757700000012, 33.8522523 ] } },
{ "type": "Feature", "properties": { "FEATURE_NAME": "cloverleaf", "FEATURE_CLASS": "Populated Place", "STATE_ALPHA": "AZ", "STATE_NUMERIC": 4, "COUNTY_NAME": "Maricopa", "COUNTY_NUMERIC": 13.0, "PRIM_LAT_DEC": 33.3444925, "PRIM_LONG_DEC": -111.8631959, "ELEV_IN_M": 366.0, "ELEV_IN_FT": 1201.0, "MAP_NAME": "Chandler" }, "geometry": { "type": "Point", "coordinates": [ -111.8631959, 33.3444925 ] } },
{ "type": "Feature", "properties": { "FEATURE_NAME": "camp clover ranger station", "FEATURE_CLASS": "Locale", "STATE_ALPHA": "AZ", "STATE_NUMERIC": 4, "COUNTY_NAME": "Coconino", "COUNTY_NUMERIC": 5.0, "PRIM_LAT_DEC": 35.2369569, "PRIM_LONG_DEC": -112.2160038, "ELEV_IN_M": 2101.0, "ELEV_IN_FT": 6893.0, "MAP_NAME": "Williams South" }, "geometry": { "type": "Point", "coordinates": [ -112.2160038, 35.2369569 ] } },
{ "type": "Feature", "properties": { "FEATURE_NAME": "clover canyon", "FEATURE_CLASS": "Valley", "STATE_ALPHA": "AZ", "STATE_NUMERIC": 4, "COUNTY_NAME": "Gila", "COUNTY_NUMERIC": 7.0, "PRIM_LAT_DEC": 34.0386537, "PRIM_LONG_DEC": -111.0767933, "ELEV_IN_M": 1389.0, "ELEV_IN_FT": 4557.0, "MAP_NAME": "Buzzard Roost Mesa" }, "geometry": { "type": "Point", "coordinates": [ -111.0767933, 34.0386537 ] } },
{ "type": "Feature", "properties": { "FEATURE_NAME": "clover canyon", "FEATURE_CLASS": "Valley", "STATE_ALPHA": "AZ", "STATE_NUMERIC": 4, "COUNTY_NAME": "Coconino", "COUNTY_NUMERIC": 5.0, "PRIM_LAT_DEC": 34.5516919, "PRIM_LONG_DEC": -111.4037528, "ELEV_IN_M": 1843.0, "ELEV_IN_FT": 6047.0, "MAP_NAME": "Calloway Butte" }, "geometry": { "type": "Point", "coordinates": [ -111.4037528, 34.5516919 ] } },
{ "type": "Feature", "properties": { "FEATURE_NAME": "clover creek", "FEATURE_CLASS": "Stream", "STATE_ALPHA": "AZ", "STATE_NUMERIC": 4, "COUNTY_NAME": "Gila", "COUNTY_NUMERIC": 7.0, "PRIM_LAT_DEC": 34.2244776, "PRIM_LONG_DEC": -111.6315333, "ELEV_IN_M": 1268.0, "ELEV_IN_FT": 4160.0, "MAP_NAME": "Wet Bottom Mesa" }, "geometry": { "type": "Point", "coordinates": [ -111.631533299999987, 34.2244776 ] } },
{ "type": "Feature", "properties": { "FEATURE_NAME": "clover creek", "FEATURE_CLASS": "Stream", "STATE_ALPHA": "AZ", "STATE_NUMERIC": 4, "COUNTY_NAME": "Coconino", "COUNTY_NUMERIC": 5.0, "PRIM_LAT_DEC": 34.5516919, "PRIM_LONG_DEC": -111.4037528, "ELEV_IN_M": 1843.0, "ELEV_IN_FT": 6047.0, "MAP_NAME": "Calloway Butte" }, "geometry": { "type": "Point", "coordinates": [ -111.4037528, 34.5516919 ] } },
{ "type": "Feature", "properties": { "FEATURE_NAME": "clover point tank", "FEATURE_CLASS": "Reservoir", "STATE_ALPHA": "AZ", "STATE_NUMERIC": 4, "COUNTY_NAME": "Coconino", "COUNTY_NUMERIC": 5.0, "PRIM_LAT_DEC": 34.5445671, "PRIM_LONG_DEC": -111.3604033, "ELEV_IN_M": 2129.0, "ELEV_IN_FT": 6985.0, "MAP_NAME": "Long Valley" }, "geometry": { "type": "Point", "coordinates": [ -111.3604033, 34.5445671 ] } },
{ "type": "Feature", "properties": { "FEATURE_NAME": "clover spring", "FEATURE_CLASS": "Spring", "STATE_ALPHA": "AZ", "STATE_NUMERIC": 4, "COUNTY_NAME": "Maricopa", "COUNTY_NUMERIC": 13.0, "PRIM_LAT_DEC": 33.471995, "PRIM_LONG_DEC": -111.2567923, "ELEV_IN_M": 1231.0, "ELEV_IN_FT": 4039.0, "MAP_NAME": "Weavers Needle" }, "geometry": { "type": "Point", "coordinates": [ -111.2567923, 33.471995 ] } },
{ "type": "Feature", "properties": { "FEATURE_NAME": "clover spring", "FEATURE_CLASS": "Spring", "STATE_ALPHA": "AZ", "STATE_NUMERIC": 4, "COUNTY_NAME": "Gila", "COUNTY_NUMERIC": 7.0, "PRIM_LAT_DEC": 34.0275002, "PRIM_LONG_DEC": -111.106976, "ELEV_IN_M": 1638.0, "ELEV_IN_FT": 5374.0, "MAP_NAME": "Buzzard Roost Mesa" }, "geometry": { "type": "Point", "coordinates": [ -111.106976, 34.0275002 ] } },
{ "type": "Feature", "properties": { "FEATURE_NAME": "clover spring", "FEATURE_CLASS": "Spring", "STATE_ALPHA": "AZ", "STATE_NUMERIC": 4, "COUNTY_NAME": "Coconino", "COUNTY_NUMERIC": 5.0, "PRIM_LAT_DEC": 34.50583, "PRIM_LONG_DEC": -111.36211, "ELEV_IN_M": 2090.0, "ELEV_IN_FT": 6857.0, "MAP_NAME": "Long Valley" }, "geometry": { "type": "Point", "coordinates": [ -111.36211, 34.50583 ] } },
{ "type": "Feature", "properties": { "FEATURE_NAME": "clover spring", "FEATURE_CLASS": "Spring", "STATE_ALPHA": "AZ", "STATE_NUMERIC": 4, "COUNTY_NAME": "Coconino", "COUNTY_NUMERIC": 5.0, "PRIM_LAT_DEC": 35.2314582, "PRIM_LONG_DEC": -112.2034906, "ELEV_IN_M": 2189.0, "ELEV_IN_FT": 7182.0, "MAP_NAME": "Williams South" }, "geometry": { "type": "Point", "coordinates": [ -112.2034906, 35.2314582 ] } },
{ "type": "Feature", "properties": { "FEATURE_NAME": "clover tank", "FEATURE_CLASS": "Reservoir", "STATE_ALPHA": "AZ", "STATE_NUMERIC": 4, "COUNTY_NAME": "Coconino", "COUNTY_NUMERIC": 5.0, "PRIM_LAT_DEC": 34.5562886, "PRIM_LONG_DEC": -111.350741, "ELEV_IN_M": 2079.0, "ELEV_IN_FT": 6821.0, "MAP_NAME": "Long Valley" }, "geometry": { "type": "Point", "coordinates": [ -111.350741, 34.5562886 ] } },
{ "type": "Feature", "properties": { "FEATURE_NAME": "clover tank", "FEATURE_CLASS": "Reservoir", "STATE_ALPHA": "AZ", "STATE_NUMERIC": 4, "COUNTY_NAME": "Coconino", "COUNTY_NUMERIC": 5.0, "PRIM_LAT_DEC": 34.8662076, "PRIM_LONG_DEC": -111.4945985, "ELEV_IN_M": 2213.0, "ELEV_IN_FT": 7260.0, "MAP_NAME": "Hutch Mountain" }, "geometry": { "type": "Point", "coordinates": [ -111.4945985, 34.8662076 ] } },
{ "type": "Feature", "properties": { "FEATURE_NAME": "clover wash", "FEATURE_CLASS": "Stream", "STATE_ALPHA": "AZ", "STATE_NUMERIC": 4, "COUNTY_NAME": "Gila", "COUNTY_NUMERIC": 7.0, "PRIM_LAT_DEC": 34.0750387, "PRIM_LONG_DEC": -111.3481901, "ELEV_IN_M": 914.0, "ELEV_IN_FT": 2999.0, "MAP_NAME": "Gisela" }, "geometry": { "type": "Point", "coordinates": [ -111.348190099999982, 34.0750387 ] } },
{ "type": "Feature", "properties": { "FEATURE_NAME": "clover well", "FEATURE_CLASS": "Well", "STATE_ALPHA": "AZ", "STATE_NUMERIC": 4, "COUNTY_NAME": "Gila", "COUNTY_NUMERIC": 7.0, "PRIM_LAT_DEC": 34.0803161, "PRIM_LONG_DEC": -111.3829132, "ELEV_IN_M": 986.0, "ELEV_IN_FT": 3235.0, "MAP_NAME": "Mazatzal Peak" }, "geometry": { "type": "Point", "coordinates": [ -111.3829132, 34.0803161 ] } },
{ "type": "Feature", "properties": { "FEATURE_NAME": "cloverleaf ranch", "FEATURE_CLASS": "Locale", "STATE_ALPHA": "AZ", "STATE_NUMERIC": 4, "COUNTY_NAME": "Yavapai", "COUNTY_NUMERIC": 25.0, "PRIM_LAT_DEC": 34.6308565, "PRIM_LONG_DEC": -111.9093203, "ELEV_IN_M": 966.0, "ELEV_IN_FT": 3169.0, "MAP_NAME": "Cornville" }, "geometry": { "type": "Point", "coordinates": [ -111.9093203, 34.6308565 ] } },
{ "type": "Feature", "properties": { "FEATURE_NAME": "glove mine", "FEATURE_CLASS": "Mine", "STATE_ALPHA": "AZ", "STATE_NUMERIC": 4, "COUNTY_NAME": "Santa Cruz", "COUNTY_NUMERIC": 23.0, "PRIM_LAT_DEC": 31.6603669, "PRIM_LONG_DEC": -110.9495329, "ELEV_IN_M": 1293.0, "ELEV_IN_FT": 4242.0, "MAP_NAME": "Mount Hopkins" }, "geometry": { "type": "Point", "coordinates": [ -110.9495329, 31.6603669 ] } },
{ "type": "Feature", "properties": { "FEATURE_NAME": "glover tank", "FEATURE_CLASS": "Reservoir", "STATE_ALPHA": "AZ", "STATE_NUMERIC": 4, "COUNTY_NAME": "Greenlee", "COUNTY_NUMERIC": 11.0, "PRIM_LAT_DEC": 33.4492216, "PRIM_LONG_DEC": -109.4478193, "ELEV_IN_M": 2017.0, "ELEV_IN_FT": 6617.0, "MAP_NAME": "Robinson Mesa" }, "geometry": { "type": "Point", "coordinates": [ -109.4478193, 33.4492216 ] } },
{ "type": "Feature", "properties": { "FEATURE_NAME": "love lake", "FEATURE_CLASS": "Reservoir", "STATE_ALPHA": "AZ", "STATE_NUMERIC": 4, "COUNTY_NAME": "Navajo", "COUNTY_NUMERIC": 17.0, "PRIM_LAT_DEC": 34.3999565, "PRIM_LONG_DEC": -110.0171287, "ELEV_IN_M": 1770.0, "ELEV_IN_FT": 5807.0, "MAP_NAME": "Taylor" }, "geometry": { "type": "Point", "coordinates": [ -110.0171287, 34.3999565 ] } },
{ "type": "Feature", "properties": { "FEATURE_NAME": "clover spring", "FEATURE_CLASS": "Spring", "STATE_ALPHA": "AZ", "STATE_NUMERIC": 4, "COUNTY_NAME": "Gila", "COUNTY_NUMERIC": 7.0, "PRIM_LAT_DEC": 34.3353084, "PRIM_LONG_DEC": -111.4951414, "ELEV_IN_M": 1820.0, "ELEV_IN_FT": 5971.0, "MAP_NAME": "Buckhead Mesa" }, "geometry": { "type": "Point", "coordinates": [ -111.4951414, 34.3353084 ] } },
{ "type": "Feature", "properties": { "FEATURE_NAME": "clover flat tank", "FEATURE_CLASS": "Reservoir", "STATE_ALPHA": "AZ", "STATE_NUMERIC": 4, "COUNTY_NAME": "Gila", "COUNTY_NUMERIC": 7.0, "PRIM_LAT_DEC": 34.0524812, "PRIM_LONG_DEC": -110.7787601, "ELEV_IN_M": 1642.0, "ELEV_IN_FT": 5387.0, "MAP_NAME": "Gentry Mountain" }, "geometry": { "type": "Point", "coordinates": [ -110.7787601, 34.0524812 ] } },
{ "type": "Feature", "properties": { "FEATURE_NAME": "clover spring", "FEATURE_CLASS": "Spring", "STATE_ALPHA": "AZ", "STATE_NUMERIC": 4, "COUNTY_NAME": "Gila", "COUNTY_NUMERIC": 7.0, "PRIM_LAT_DEC": 34.2293941, "PRIM_LONG_DEC": -111.6133265, "ELEV_IN_M": 1353.0, "ELEV_IN_FT": 4439.0, "MAP_NAME": "Cypress Butte" }, "geometry": { "type": "Point", "coordinates": [ -111.613326499999985, 34.2293941 ] } },
{ "type": "Feature", "properties": { "FEATURE_NAME": "clover flat tank number 2", "FEATURE_CLASS": "Reservoir", "STATE_ALPHA": "AZ", "STATE_NUMERIC": 4, "COUNTY_NAME": "Gila", "COUNTY_NUMERIC": 7.0, "PRIM_LAT_DEC": 34.0591501, "PRIM_LONG_DEC": -110.775656, "ELEV_IN_M": 1676.0, "ELEV_IN_FT": 5499.0, "MAP_NAME": "Gentry Mountain" }, "geometry": { "type": "Point", "coordinates": [ -110.775656, 34.0591501 ] } },
{ "type": "Feature", "properties": { "FEATURE_NAME": "prescott regional airport - ernest a love field", "FEATURE_CLASS": "Airport", "STATE_ALPHA": "AZ", "STATE_NUMERIC": 4, "COUNTY_NAME": "Yavapai", "COUNTY_NUMERIC": 25.0, "PRIM_LAT_DEC": 34.650912, "PRIM_LONG_DEC": -112.4204368, "ELEV_IN_M": 1525.0, "ELEV_IN_FT": 5003.0, "MAP_NAME": "Chino Valley South" }, "geometry": { "type": "Point", "coordinates": [ -112.4204368, 34.650912 ] } },
{ "type": "Feature", "properties": { "FEATURE_NAME": "clover bend", "FEATURE_CLASS": "Bend", "STATE_ALPHA": "AR", "STATE_NUMERIC": 5, "COUNTY_NAME": "Lawrence", "COUNTY_NUMERIC": 75.0, "PRIM_LAT_DEC": 35.9967386, "PRIM_LONG_DEC": -91.1287365, "ELEV_IN_M": 74.0, "ELEV_IN_FT": 243.0, "MAP_NAME": "Strangers Home" }, "geometry": { "type": "Point", "coordinates": [ -91.1287365, 35.9967386 ] } },
{ "type": "Feature", "properties": { "FEATURE_NAME": "clover bend cemetery", "FEATURE_CLASS": "Cemetery", "STATE_ALPHA": "AR", "STATE_NUMERIC": 5, "COUNTY_NAME": "Lawrence", "COUNTY_NUMERIC": 75.0, "PRIM_LAT_DEC": 35.9995096, "PRIM_LONG_DEC": -91.1053962, "ELEV_IN_M": 78.0, "ELEV_IN_FT": 256.0, "MAP_NAME": "Alicia" }, "geometry": { "type": "Point", "coordinates": [ -91.1053962, 35.9995096 ] } },
{ "type": "Feature", "properties": { "FEATURE_NAME": "cloverdale ridge", "FEATURE_CLASS": "Ridge", "STATE_ALPHA": "AR", "STATE_NUMERIC": 5, "COUNTY_NAME": "Boone", "COUNTY_NUMERIC": 9.0, "PRIM_LAT_DEC": 36.4222887, "PRIM_LONG_DEC": -93.2365697, "ELEV_IN_M": 485.0, "ELEV_IN_FT": 1591.0, "MAP_NAME": "Omaha" }, "geometry": { "type": "Point", "coordinates": [ -93.2365697, 36.4222887 ] } },
{ "type": "Feature", "properties": { "FEATURE_NAME": "glover brake", "FEATURE_CLASS": "Swamp", "STATE_ALPHA": "AR", "STATE_NUMERIC": 5, "COUNTY_NAME": "Ashley", "COUNTY_NUMERIC": 3.0, "PRIM_LAT_DEC": 33.0702397, "PRIM_LONG_DEC": -91.6295712, "ELEV_IN_M": 33.0, "ELEV_IN_FT": 108.0, "MAP_NAME": "Wilmot SW" }, "geometry": { "type": "Point", "coordinates": [ -91.6295712, 33.0702397 ] } },
{ "type": "Feature", "properties": { "FEATURE_NAME": "glover cemetery", "FEATURE_CLASS": "Cemetery", "STATE_ALPHA": "AR", "STATE_NUMERIC": 5, "COUNTY_NAME": "Columbia", "COUNTY_NUMERIC": 27.0, "PRIM_LAT_DEC": 33.0598519, "PRIM_LONG_DEC": -93.2665502, "ELEV_IN_M": 82.0, "ELEV_IN_FT": 269.0, "MAP_NAME": "Walkerville" }, "geometry": { "type": "Point", "coordinates": [ -93.2665502, 33.0598519 ] } },
{ "type": "Feature", "properties": { "FEATURE_NAME": "glover cemetery", "FEATURE_CLASS": "Cemetery", "STATE_ALPHA": "AR", "STATE_NUMERIC": 5, "COUNTY_NAME": "Lonoke", "COUNTY_NUMERIC": 85.0, "PRIM_LAT_DEC": 34.8803604, "PRIM_LONG_DEC": -91.9570797, "ELEV_IN_M": 84.0, "ELEV_IN_FT": 276.0, "MAP_NAME": "Oak Grove" }, "geometry": { "type": "Point", "coordinates": [ -91.9570797, 34.8803604 ] } },
{ "type": "Feature", "properties": { "FEATURE_NAME": "love cemetery", "FEATURE_CLASS": "Cemetery", "STATE_ALPHA": "AR", "STATE_NUMERIC": 5, "COUNTY_NAME": "Johnson", "COUNTY_NUMERIC": 71.0, "PRIM_LAT_DEC": 35.4147994, "PRIM_LONG_DEC": -93.3690633, "ELEV_IN_M": 153.0, "ELEV_IN_FT": 502.0, "MAP_NAME": "Knoxville" }, "geometry": { "type": "Point", "coordinates": [ -93.3690633, 35.4147994 ] } },
{ "type": "Feature", "properties": { "FEATURE_NAME": "love cemetery", "FEATURE_CLASS": "Cemetery", "STATE_ALPHA": "AR", "STATE_NUMERIC": 5, "COUNTY_NAME": "Fulton", "COUNTY_NUMERIC": 49.0, "PRIM_LAT_DEC": 36.390058, "PRIM_LONG_DEC": -91.6159696, "ELEV_IN_M": 215.0, "ELEV_IN_FT": 705.0, "MAP_NAME": "Mammoth Spring" }, "geometry": { "type": "Point", "coordinates": [ -91.6159696, 36.390058 ] } },
{ "type": "Feature", "properties": { "FEATURE_NAME": "love creek", "FEATURE_CLASS": "Stream", "STATE_ALPHA": "AR", "STATE_NUMERIC": 5, "COUNTY_NAME": "Clark", "COUNTY_NUMERIC": 19.0, "PRIM_LAT_DEC": 34.0398235, "PRIM_LONG_DEC": -93.2971192, "ELEV_IN_M": 73.0, "ELEV_IN_FT": 239.0, "MAP_NAME": "Okolona North" }, "geometry": { "type": "Point", "coordinates": [ -93.2971192, 34.0398235 ] } },
{ "type": "Feature", "properties": { "FEATURE_NAME": "love creek", "FEATURE_CLASS": "Stream", "STATE_ALPHA": "AR", "STATE_NUMERIC": 5, "COUNTY_NAME": "Jefferson", "COUNTY_NUMERIC": 69.0, "PRIM_LAT_DEC": 34.4009291, "PRIM_LONG_DEC": -92.1087554, "ELEV_IN_M": 65.0, "ELEV_IN_FT": 213.0, "MAP_NAME": "Wright" }, "geometry": { "type": "Point", "coordinates": [ -92.1087554, 34.4009291 ] } },
{ "type": "Feature", "properties": { "FEATURE_NAME": "love hollow", "FEATURE_CLASS": "Valley", "STATE_ALPHA": "AR", "STATE_NUMERIC": 5, "COUNTY_NAME": "Izard", "COUNTY_NUMERIC": 65.0, "PRIM_LAT_DEC": 35.8838571, "PRIM_LONG_DEC": -91.865405, "ELEV_IN_M": 88.0, "ELEV_IN_FT": 289.0, "MAP_NAME": "Mount Pleasant" }, "geometry": { "type": "Point", "coordinates": [ -91.865405, 35.8838571 ] } },
{ "type": "Feature", "properties": { "FEATURE_NAME": "love rest cemetery", "FEATURE_CLASS": "Cemetery", "STATE_ALPHA": "AR", "STATE_NUMERIC": 5, "COUNTY_NAME": "Arkansas", "COUNTY_NUMERIC": 1.0, "PRIM_LAT_DEC": 34.5123128, "PRIM_LONG_DEC": -91.5403995, "ELEV_IN_M": 65.0, "ELEV_IN_FT": 213.0, "MAP_NAME": "Stuttgart North" }, "geometry": { "type": "Point", "coordinates": [ -91.5403995, 34.5123128 ] } },
{ "type": "Feature", "properties": { "FEATURE_NAME": "slover creek", "FEATURE_CLASS": "Stream", "STATE_ALPHA": "AR", "STATE_NUMERIC": 5, "COUNTY_NAME": "Pope", "COUNTY_NUMERIC": 115.0, "PRIM_LAT_DEC": 35.4545272, "PRIM_LONG_DEC": -93.3365688, "ELEV_IN_M": 110.0, "ELEV_IN_FT": 361.0, "MAP_NAME": "Knoxville" }, "geometry": { "type": "Point", "coordinates": [ -93.3365688, 35.4545272 ] } },
{ "type": "Feature", "properties": { "FEATURE_NAME": "true love bar", "FEATURE_CLASS": "Bar", "STATE_ALPHA": "AR", "STATE_NUMERIC": 5, "COUNTY_NAME": "Lee", "COUNTY_NUMERIC": 77.0, "PRIM_LAT_DEC": 34.8489848, "PRIM_LONG_DEC": -90.6539965, "ELEV_IN_M": 50.0, "ELEV_IN_FT": 164.0, "MAP_NAME": "Soudan" }, "geometry": { "type": "Point", "coordinates": [ -90.6539965, 34.8489848 ] } },
{ "type": "Feature", "properties": { "FEATURE_NAME": "lovelace cemetery", "FEATURE_CLASS": "Cemetery", "STATE_ALPHA": "AR", "STATE_NUMERIC": 5, "COUNTY_NAME": "Sebastian", "COUNTY_NUMERIC": 131.0, "PRIM_LAT_DEC": 35.1361999, "PRIM_LONG_DEC": -94.2688154, "ELEV_IN_M": 214.0, "ELEV_IN_FT": 702.0, "MAP_NAME": "Greenwood" }, "geometry": { "type": "Point", "coordinates": [ -94.2688154, 35.1361999 ] } },
{ "type": "Feature", "properties": { "FEATURE_NAME": "love creek", "FEATURE_CLASS": "Populated Place", "STATE_ALPHA": "AR", "STATE_NUMERIC": 5, "COUNTY_NAME": "Clark", "COUNTY_NUMERIC": 19.0, "PRIM_LAT_DEC": 34.0253799, "PRIM_LONG_DEC": -93.3148974, "ELEV_IN_M": 100.0, "ELEV_IN_FT": 328.0, "MAP_NAME": "Okolona North" }, "geometry": { "type": "Point", "coordinates": [ -93.3148974, 34.0253799 ] } },
{ "type": "Feature", "properties": { "FEATURE_NAME": "cloverdale", "FEATURE_CLASS": "Populated Place", "STATE_ALPHA": "AR", "STATE_NUMERIC": 5, "COUNTY_NAME": "Pulaski", "COUNTY_NUMERIC": 119.0, "PRIM_LAT_DEC": 34.6731483, "PRIM_LONG_DEC": -92.3507085, "ELEV_IN_M": 88.0, "ELEV_IN_FT": 289.0, "MAP_NAME": "Little Rock" }, "geometry": { "type": "Point", "coordinates": [ -92.3507085, 34.6731483 ] } },
{ "type": "Feature", "properties": { "FEATURE_NAME": "love place", "FEATURE_CLASS": "Populated Place", "STATE_ALPHA": "AR", "STATE_NUMERIC": 5, "COUNTY_NAME": "Cross", "COUNTY_NUMERIC": 37.0, "PRIM_LAT_DEC": 35.3164752, "PRIM_LONG_DEC": -90.5737175, "ELEV_IN_M": 63.0, "ELEV_IN_FT": 207.0, "MAP_NAME": "Parkin" }, "geometry": { "type": "Point", "coordinates": [ -90.5737175, 35.3164752 ] } },
{ "type": "Feature", "properties": { "FEATURE_NAME": "love chapel (historical)", "FEATURE_CLASS": "Church", "STATE_ALPHA": "AR", "STATE_NUMERIC": 5, "COUNTY_NAME": "Jackson", "COUNTY_NUMERIC": 67.0, "PRIM_LAT_DEC": 35.4273056, "PRIM_LONG_DEC": -91.0559546, "ELEV_IN_M": 67.0, "ELEV_IN_FT": 220.0, "MAP_NAME": "Beedeville" }, "geometry": { "type": "Point", "coordinates": [ -91.0559546, 35.4273056 ] } },
{ "type": "Feature", "properties": { "FEATURE_NAME": "true love crossing", "FEATURE_CLASS": "Crossing", "STATE_ALPHA": "AR", "STATE_NUMERIC": 5, "COUNTY_NAME": "Lee", "COUNTY_NUMERIC": 77.0, "PRIM_LAT_DEC": 34.8495403, "PRIM_LONG_DEC": -90.648163, "ELEV_IN_M": 52.0, "ELEV_IN_FT": 171.0, "MAP_NAME": "Soudan" }, "geometry": { "type": "Point", "coordinates": [ -90.648163, 34.8495403 ] } },
{ "type": "Feature", "properties": { "FEATURE_NAME": "clover bend school (historical)", "FEATURE_CLASS": "School", "STATE_ALPHA": "AR", "STATE_NUMERIC": 5, "COUNTY_NAME": "Lawrence", "COUNTY_NUMERIC": 75.0, "PRIM_LAT_DEC": 35.9959052, "PRIM_LONG_DEC": -91.1162361, "ELEV_IN_M": 76.0, "ELEV_IN_FT": 249.0, "MAP_NAME": "Alicia" }, "geometry": { "type": "Point", "coordinates": [ -91.1162361, 35.9959052 ] } },
{ "type": "Feature", "properties": { "FEATURE_NAME": "clover bend", "FEATURE_CLASS": "Populated Place", "STATE_ALPHA": "AR", "STATE_NUMERIC": 5, "COUNTY_NAME": "Lawrence", "COUNTY_NUMERIC": 75.0, "PRIM_LAT_DEC": 35.9809055, "PRIM_LONG_DEC": -91.0931798, "ELEV_IN_M": 75.0, "ELEV_IN_FT": 246.0, "MAP_NAME": "Alicia" }, "geometry": { "type": "Point", "coordinates": [ -91.0931798, 35.9809055 ] } },
{ "type": "Feature", "properties": { "FEATURE_NAME": "love rest church (historical)", "FEATURE_CLASS": "Church", "STATE_ALPHA": "AR", "STATE_NUMERIC": 5, "COUNTY_NAME": "Arkansas", "COUNTY_NUMERIC": 1.0, "PRIM_LAT_DEC": 34.0342678, "PRIM_LONG_DEC": -91.3795646, "ELEV_IN_M": 54.0, "ELEV_IN_FT": 177.0, "MAP_NAME": "Gillett" }, "geometry": { "type": "Point", "coordinates": [ -91.3795646, 34.0342678 ] } },
{ "type": "Feature", "properties": { "FEATURE_NAME": "glover school (historical)", "FEATURE_CLASS": "School", "STATE_ALPHA": "AR", "STATE_NUMERIC": 5, "COUNTY_NAME": "Faulkner", "COUNTY_NUMERIC": 45.0, "PRIM_LAT_DEC": 35.2523042, "PRIM_LONG_DEC": -92.3698767, "ELEV_IN_M": 160.0, "ELEV_IN_FT": 525.0, "MAP_NAME": "Guy" }, "geometry": { "type": "Point", "coordinates": [ -92.3698767, 35.2523042 ] } },
{ "type": "Feature", "properties": { "FEATURE_NAME": "loves chapel seventh day adventist church", "FEATURE_CLASS": "Church", "STATE_ALPHA": "AR", "STATE_NUMERIC": 5, "COUNTY_NAME": "Sebastian", "COUNTY_NUMERIC": 131.0, "PRIM_LAT_DEC": 35.399535, "PRIM_LONG_DEC": -94.402992, "ELEV_IN_M": 134.0, "ELEV_IN_FT": 440.0, "MAP_NAME": "Fort Smith" }, "geometry": { "type": "Point", "coordinates": [ -94.402992, 35.399535 ] } },
{ "type": "Feature", "properties": { "FEATURE_NAME": "love cemetery", "FEATURE_CLASS": "Cemetery", "STATE_ALPHA": "AR", "STATE_NUMERIC": 5, "COUNTY_NAME": "Craighead", "COUNTY_NUMERIC": 31.0, "PRIM_LAT_DEC": 35.8839559, "PRIM_LONG_DEC": -90.7809419, "ELEV_IN_M": 103.0, "ELEV_IN_FT": 338.0, "MAP_NAME": "Bono" }, "geometry": { "type": "Point", "coordinates": [ -90.780941900000016, 35.8839559 ] } },
{ "type": "Feature", "properties": { "FEATURE_NAME": "cloverleaf plaza shopping center", "FEATURE_CLASS": "Locale", "STATE_ALPHA": "AR", "STATE_NUMERIC": 5, "COUNTY_NAME": "Crawford", "COUNTY_NUMERIC": 33.0, "PRIM_LAT_DEC": 35.4420334, "PRIM_LONG_DEC": -94.326045, "ELEV_IN_M": 133.0, "ELEV_IN_FT": 436.0, "MAP_NAME": "Van Buren" }, "geometry": { "type": "Point", "coordinates": [ -94.326045, 35.4420334 ] } },
{ "type": "Feature", "properties": { "FEATURE_NAME": "love (historical)", "FEATURE_CLASS": "Populated Place", "STATE_ALPHA": "AR", "STATE_NUMERIC": 5, "COUNTY_NAME": "Izard", "COUNTY_NUMERIC": 65.0, "PRIM_LAT_DEC": 36.1481244, "PRIM_LONG_DEC": -91.6934769, "ELEV_IN_M": 153.0, "ELEV_IN_FT": 502.0, "MAP_NAME": "Myron" }, "geometry": { "type": "Point", "coordinates": [ -91.6934769, 36.1481244 ] } },
{ "type": "Feature", "properties": { "FEATURE_NAME": "clover bend high school", "FEATURE_CLASS": "School", "STATE_ALPHA": "AR", "STATE_NUMERIC": 5, "COUNTY_NAME": "Lawrence", "COUNTY_NUMERIC": 75.0, "PRIM_LAT_DEC": 35.9820165, "PRIM_LONG_DEC": -91.0942909, "ELEV_IN_M": 75.0, "ELEV_IN_FT": 246.0, "MAP_NAME": "Alicia" }, "geometry": { "type": "Point", "coordinates": [ -91.0942909, 35.9820165 ] } },
{ "type": "Feature", "properties": { "FEATURE_NAME": "clover bend historic district", "FEATURE_CLASS": "Park", "STATE_ALPHA": "AR", "STATE_NUMERIC": 5, "COUNTY_NAME": "Lawrence", "COUNTY_NUMERIC": 75.0, "PRIM_LAT_DEC": 35.9809055, "PRIM_LONG_DEC": -91.0931798, "ELEV_IN_M": 75.0, "ELEV_IN_FT": 246.0, "MAP_NAME": "Alicia" }, "geometry": { "type": "Point", "coordinates": [ -91.0931798, 35.9809055 ] } },
{ "type": "Feature", "properties": { "FEATURE_NAME": "cloverdale assembly of god church", "FEATURE_CLASS": "Church", "STATE_ALPHA": "AR", "STATE_NUMERIC": 5, "COUNTY_NAME": "Pulaski", "COUNTY_NUMERIC": 119.0, "PRIM_LAT_DEC": 34.6742594, "PRIM_LONG_DEC": -92.3454305, "ELEV_IN_M": 91.0, "ELEV_IN_FT": 299.0, "MAP_NAME": "Little Rock" }, "geometry": { "type": "Point", "coordinates": [ -92.3454305, 34.6742594 ] } },
{ "type": "Feature", "properties": { "FEATURE_NAME": "cloverdale christian academy", "FEATURE_CLASS": "Church", "STATE_ALPHA": "AR", "STATE_NUMERIC": 5, "COUNTY_NAME": "Pulaski", "COUNTY_NUMERIC": 119.0, "PRIM_LAT_DEC": 34.6742594, "PRIM_LONG_DEC": -92.3457083, "ELEV_IN_M": 91.0, "ELEV_IN_FT": 299.0, "MAP_NAME": "Little Rock" }, "geometry": { "type": "Point", "coordinates": [ -92.3457083, 34.6742594 ] } },
{ "type": "Feature", "properties": { "FEATURE_NAME": "cloverdale elementary school", "FEATURE_CLASS": "School", "STATE_ALPHA": "AR", "STATE_NUMERIC": 5, "COUNTY_NAME": "Pulaski", "COUNTY_NUMERIC": 119.0, "PRIM_LAT_DEC": 34.6737026, "PRIM_LONG_DEC": -92.3495928, "ELEV_IN_M": 89.0, "ELEV_IN_FT": 292.0, "MAP_NAME": "Little Rock" }, "geometry": { "type": "Point", "coordinates": [ -92.3495928, 34.6737026 ] } },
{ "type": "Feature", "properties": { "FEATURE_NAME": "cloverdale junior high school", "FEATURE_CLASS": "School", "STATE_ALPHA": "AR", "STATE_NUMERIC": 5, "COUNTY_NAME": "Pulaski", "COUNTY_NUMERIC": 119.0, "PRIM_LAT_DEC": 34.6739816, "PRIM_LONG_DEC": -92.3470972, "ELEV_IN_M": 91.0, "ELEV_IN_FT": 299.0, "MAP_NAME": "Little Rock" }, "geometry": { "type": "Point", "coordinates": [ -92.3470972, 34.6739816 ] } },
{ "type": "Feature", "properties": { "FEATURE_NAME": "cloverdale plaza shopping center", "FEATURE_CLASS": "Locale", "STATE_ALPHA": "AR", "STATE_NUMERIC": 5, "COUNTY_NAME": "Pulaski", "COUNTY_NUMERIC": 119.0, "PRIM_LAT_DEC": 34.6692594, "PRIM_LONG_DEC": -92.3570976, "ELEV_IN_M": 88.0, "ELEV_IN_FT": 289.0, "MAP_NAME": "Little Rock" }, "geometry": { "type": "Point", "coordinates": [ -92.357097599999989, 34.6692594 ] } },
{ "type": "Feature", "properties": { "FEATURE_NAME": "cloverdale shopping center", "FEATURE_CLASS": "Locale", "STATE_ALPHA": "AR", "STATE_NUMERIC": 5, "COUNTY_NAME": "Pulaski", "COUNTY_NUMERIC": 119.0, "PRIM_LAT_DEC": 34.6703705, "PRIM_LONG_DEC": -92.3626534, "ELEV_IN_M": 85.0, "ELEV_IN_FT": 279.0, "MAP_NAME": "Little Rock" }, "geometry": { "type": "Point", "coordinates": [ -92.362653400000013, 34.6703705 ] } },
{ "type": "Feature", "properties": { "FEATURE_NAME": "clover branch", "FEATURE_CLASS": "Stream", "STATE_ALPHA": "AR", "STATE_NUMERIC": 5, "COUNTY_NAME": "Howard", "COUNTY_NUMERIC": 61.0, "PRIM_LAT_DEC": 34.3198293, "PRIM_LONG_DEC": -93.9213052, "ELEV_IN_M": 228.0, "ELEV_IN_FT": 748.0, "MAP_NAME": "Athens" }, "geometry": { "type": "Point", "coordinates": [ -93.9213052, 34.3198293 ] } },
{ "type": "Feature", "properties": { "FEATURE_NAME": "love cemetery", "FEATURE_CLASS": "Cemetery", "STATE_ALPHA": "AR", "STATE_NUMERIC": 5, "COUNTY_NAME": "Crawford", "COUNTY_NUMERIC": 33.0, "PRIM_LAT_DEC": 35.5314689, "PRIM_LONG_DEC": -94.2168678, "ELEV_IN_M": 245.0, "ELEV_IN_FT": 804.0, "MAP_NAME": "Mountainburg SW" }, "geometry": { "type": "Point", "coordinates": [ -94.216867799999989, 35.5314689 ] } },
{ "type": "Feature", "properties": { "FEATURE_NAME": "love creek", "FEATURE_CLASS": "Stream", "STATE_ALPHA": "AR", "STATE_NUMERIC": 5, "COUNTY_NAME": "Saline", "COUNTY_NUMERIC": 125.0, "PRIM_LAT_DEC": 34.8281467, "PRIM_LONG_DEC": -92.9843423, "ELEV_IN_M": 309.0, "ELEV_IN_FT": 1014.0, "MAP_NAME": "Paron SW" }, "geometry": { "type": "Point", "coordinates": [ -92.9843423, 34.8281467 ] } },
{ "type": "Feature", "properties": { "FEATURE_NAME": "lovell hollow", "FEATURE_CLASS": "Valley", "STATE_ALPHA": "AR", "STATE_NUMERIC": 5, "COUNTY_NAME": "Newton", "COUNTY_NUMERIC": 101.0, "PRIM_LAT_DEC": 35.8352511, "PRIM_LONG_DEC": -93.4263126, "ELEV_IN_M": 458.0, "ELEV_IN_FT": 1503.0, "MAP_NAME": "Fallsville" }, "geometry": { "type": "Point", "coordinates": [ -93.426312599999989, 35.8352511 ] } },
{ "type": "Feature", "properties": { "FEATURE_NAME": "cloverdale assembly of god church", "FEATURE_CLASS": "Church", "STATE_ALPHA": "AR", "STATE_NUMERIC": 5, "COUNTY_NAME": "Ashley", "COUNTY_NUMERIC": 3.0, "PRIM_LAT_DEC": 33.1942872, "PRIM_LONG_DEC": -91.9381873, "ELEV_IN_M": 47.0, "ELEV_IN_FT": 154.0, "MAP_NAME": "Crossett North" }, "geometry": { "type": "Point", "coordinates": [ -91.9381873, 33.1942872 ] } },
{ "type": "Feature", "properties": { "FEATURE_NAME": "glover creek", "FEATURE_CLASS": "Stream", "STATE_ALPHA": "AR", "STATE_NUMERIC": 5, "COUNTY_NAME": "Yell", "COUNTY_NUMERIC": 149.0, "PRIM_LAT_DEC": 34.7831508, "PRIM_LONG_DEC": -93.5685269, "ELEV_IN_M": 274.0, "ELEV_IN_FT": 899.0, "MAP_NAME": "Chula Mountain" }, "geometry": { "type": "Point", "coordinates": [ -93.5685269, 34.7831508 ] } },
{ "type": "Feature", "properties": { "FEATURE_NAME": "glover lake dam", "FEATURE_CLASS": "Dam", "STATE_ALPHA": "AR", "STATE_NUMERIC": 5, "COUNTY_NAME": "Lincoln", "COUNTY_NUMERIC": 79.0, "PRIM_LAT_DEC": 33.8834359, "PRIM_LONG_DEC": -91.9034687, "ELEV_IN_M": 85.0, "ELEV_IN_FT": 279.0, "MAP_NAME": "Glendale" }, "geometry": { "type": "Point", "coordinates": [ -91.9034687, 33.8834359 ] } },
{ "type": "Feature", "properties": { "FEATURE_NAME": "glover lake", "FEATURE_CLASS": "Reservoir", "STATE_ALPHA": "AR", "STATE_NUMERIC": 5, "COUNTY_NAME": "Lincoln", "COUNTY_NUMERIC": 79.0, "PRIM_LAT_DEC": 33.8832675, "PRIM_LONG_DEC": -91.901952, "ELEV_IN_M": 85.0, "ELEV_IN_FT": 279.0, "MAP_NAME": "Glendale" }, "geometry": { "type": "Point", "coordinates": [ -91.901952, 33.8832675 ] } },
{ "type": "Feature", "properties": { "FEATURE_NAME": "glover lake dam", "FEATURE_CLASS": "Dam", "STATE_ALPHA": "AR", "STATE_NUMERIC": 5, "COUNTY_NAME": "Pulaski", "COUNTY_NUMERIC": 119.0, "PRIM_LAT_DEC": 34.7167589, "PRIM_LONG_DEC": -92.503492, "ELEV_IN_M": 139.0, "ELEV_IN_FT": 456.0, "MAP_NAME": "Congo" }, "geometry": { "type": "Point", "coordinates": [ -92.503492, 34.7167589 ] } },
{ "type": "Feature", "properties": { "FEATURE_NAME": "glover lake", "FEATURE_CLASS": "Reservoir", "STATE_ALPHA": "AR", "STATE_NUMERIC": 5, "COUNTY_NAME": "Pulaski", "COUNTY_NUMERIC": 119.0, "PRIM_LAT_DEC": 34.7185203, "PRIM_LONG_DEC": -92.5043401, "ELEV_IN_M": 142.0, "ELEV_IN_FT": 466.0, "MAP_NAME": "Congo" }, "geometry": { "type": "Point", "coordinates": [ -92.5043401, 34.7185203 ] } },
{ "type": "Feature", "properties": { "FEATURE_NAME": "love prospect", "FEATURE_CLASS": "Mine", "STATE_ALPHA": "AR", "STATE_NUMERIC": 5, "COUNTY_NAME": "Izard", "COUNTY_NUMERIC": 65.0, "PRIM_LAT_DEC": 35.8972957, "PRIM_LONG_DEC": -91.8604239, "ELEV_IN_M": 169.0, "ELEV_IN_FT": 554.0, "MAP_NAME": "Mount Pleasant" }, "geometry": { "type": "Point", "coordinates": [ -91.8604239, 35.8972957 ] } },
{ "type": "Feature", "properties": { "FEATURE_NAME": "love rest number 2 church", "FEATURE_CLASS": "Church", "STATE_ALPHA": "AR", "STATE_NUMERIC": 5, "COUNTY_NAME": "Arkansas", "COUNTY_NUMERIC": 1.0, "PRIM_LAT_DEC": 34.026768, "PRIM_LONG_DEC": -91.364842, "ELEV_IN_M": 54.0, "ELEV_IN_FT": 177.0, "MAP_NAME": "Arkansas Post" }, "geometry": { "type": "Point", "coordinates": [ -91.364842, 34.026768 ] } },
{ "type": "Feature", "properties": { "FEATURE_NAME": "sweet clover bend", "FEATURE_CLASS": "Bend", "STATE_ALPHA": "AR", "STATE_NUMERIC": 5, "COUNTY_NAME": "Clay", "COUNTY_NUMERIC": 21.0, "PRIM_LAT_DEC": 36.3856169, "PRIM_LONG_DEC": -90.5612215, "ELEV_IN_M": 86.0, "ELEV_IN_FT": 282.0, "MAP_NAME": "Corning" }, "geometry": { "type": "Point", "coordinates": [ -90.5612215, 36.3856169 ] } },
{ "type": "Feature", "properties": { "FEATURE_NAME": "slover cemetery", "FEATURE_CLASS": "Cemetery", "STATE_ALPHA": "AR", "STATE_NUMERIC": 5, "COUNTY_NAME": "Scott", "COUNTY_NUMERIC": 127.0, "PRIM_LAT_DEC": 34.7528742, "PRIM_LONG_DEC": -94.2635402, "ELEV_IN_M": 308.0, "ELEV_IN_FT": 1010.0, "MAP_NAME": "Horseshoe Mountain" }, "geometry": { "type": "Point", "coordinates": [ -94.2635402, 34.7528742 ] } },
{ "type": "Feature", "properties": { "FEATURE_NAME": "clover hill cemetery", "FEATURE_CLASS": "Cemetery", "STATE_ALPHA": "AL", "STATE_NUMERIC": 1, "COUNTY_NAME": "Marengo", "COUNTY_NUMERIC": 91.0, "PRIM_LAT_DEC": 32.2590144, "PRIM_LONG_DEC": -87.9066702, "ELEV_IN_M": 83.0, "ELEV_IN_FT": 272.0, "MAP_NAME": "Myrtlewood North" }, "geometry": { "type": "Point", "coordinates": [ -87.9066702, 32.2590144 ] } },
{ "type": "Feature", "properties": { "FEATURE_NAME": "cloverdale", "FEATURE_CLASS": "Populated Place", "STATE_ALPHA": "AL", "STATE_NUMERIC": 1, "COUNTY_NAME": "Tuscaloosa", "COUNTY_NUMERIC": 125.0, "PRIM_LAT_DEC": 33.234007, "PRIM_LONG_DEC": -87.6350088, "ELEV_IN_M": 52.0, "ELEV_IN_FT": 171.0, "MAP_NAME": "Coker" }, "geometry": { "type": "Point", "coordinates": [ -87.6350088, 33.234007 ] } },
{ "type": "Feature", "properties": { "FEATURE_NAME": "cloverdale", "FEATURE_CLASS": "Populated Place", "STATE_ALPHA": "AL", "STATE_NUMERIC": 1, "COUNTY_NAME": "Jefferson", "COUNTY_NUMERIC": 73.0, "PRIM_LAT_DEC": 33.6026034, "PRIM_LONG_DEC": -86.7155448, "ELEV_IN_M": 203.0, "ELEV_IN_FT": 666.0, "MAP_NAME": "Irondale" }, "geometry": { "type": "Point", "coordinates": [ -86.7155448, 33.6026034 ] } },
{ "type": "Feature", "properties": { "FEATURE_NAME": "cloverdale", "FEATURE_CLASS": "Populated Place", "STATE_ALPHA": "AL", "STATE_NUMERIC": 1, "COUNTY_NAME": "Lauderdale", "COUNTY_NUMERIC": 77.0, "PRIM_LAT_DEC": 34.9386964, "PRIM_LONG_DEC": -87.7714177, "ELEV_IN_M": 181.0, "ELEV_IN_FT": 594.0, "MAP_NAME": "Threet" }, "geometry": { "type": "Point", "coordinates": [ -87.7714177, 34.9386964 ] } },
{ "type": "Feature", "properties": { "FEATURE_NAME": "cloverdale church", "FEATURE_CLASS": "Church", "STATE_ALPHA": "AL", "STATE_NUMERIC": 1, "COUNTY_NAME": "Lauderdale", "COUNTY_NUMERIC": 77.0, "PRIM_LAT_DEC": 34.9570294, "PRIM_LONG_DEC": -87.7903067, "ELEV_IN_M": 202.0, "ELEV_IN_FT": 663.0, "MAP_NAME": "Threet" }, "geometry": { "type": "Point", "coordinates": [ -87.7903067, 34.9570294 ] } },
{ "type": "Feature", "properties": { "FEATURE_NAME": "cloverdale heights", "FEATURE_CLASS": "Populated Place", "STATE_ALPHA": "AL", "STATE_NUMERIC": 1, "COUNTY_NAME": "Lauderdale", "COUNTY_NUMERIC": 77.0, "PRIM_LAT_DEC": 34.8698086, "PRIM_LONG_DEC": -87.6919726, "ELEV_IN_M": 192.0, "ELEV_IN_FT": 630.0, "MAP_NAME": "Florence" }, "geometry": { "type": "Point", "coordinates": [ -87.691972599999986, 34.8698086 ] } },
{ "type": "Feature", "properties": { "FEATURE_NAME": "cloverdale junior high school", "FEATURE_CLASS": "School", "STATE_ALPHA": "AL", "STATE_NUMERIC": 1, "COUNTY_NAME": "Montgomery", "COUNTY_NUMERIC": 101.0, "PRIM_LAT_DEC": 32.3529167, "PRIM_LONG_DEC": -86.2891351, "ELEV_IN_M": 76.0, "ELEV_IN_FT": 249.0, "MAP_NAME": "Montgomery South" }, "geometry": { "type": "Point", "coordinates": [ -86.2891351, 32.3529167 ] } },
{ "type": "Feature", "properties": { "FEATURE_NAME": "cloverdale school", "FEATURE_CLASS": "School", "STATE_ALPHA": "AL", "STATE_NUMERIC": 1, "COUNTY_NAME": "Lauderdale", "COUNTY_NUMERIC": 77.0, "PRIM_LAT_DEC": 34.9292524, "PRIM_LONG_DEC": -87.8389194, "ELEV_IN_M": 193.0, "ELEV_IN_FT": 633.0, "MAP_NAME": "Threet" }, "geometry": { "type": "Point", "coordinates": [ -87.8389194, 34.9292524 ] } },
{ "type": "Feature", "properties": { "FEATURE_NAME": "glover cemetery", "FEATURE_CLASS": "Cemetery", "STATE_ALPHA": "AL", "STATE_NUMERIC": 1, "COUNTY_NAME": "Madison", "COUNTY_NUMERIC": 89.0, "PRIM_LAT_DEC": 34.6128612, "PRIM_LONG_DEC": -86.4224825, "ELEV_IN_M": 196.0, "ELEV_IN_FT": 643.0, "MAP_NAME": "New Hope" }, "geometry": { "type": "Point", "coordinates": [ -86.4224825, 34.6128612 ] } },
{ "type": "Feature", "properties": { "FEATURE_NAME": "glover chapel", "FEATURE_CLASS": "Church", "STATE_ALPHA": "AL", "STATE_NUMERIC": 1, "COUNTY_NAME": "Madison", "COUNTY_NUMERIC": 89.0, "PRIM_LAT_DEC": 34.6084228, "PRIM_LONG_DEC": -86.3960978, "ELEV_IN_M": 189.0, "ELEV_IN_FT": 620.0, "MAP_NAME": "New Hope" }, "geometry": { "type": "Point", "coordinates": [ -86.3960978, 34.6084228 ] } },
{ "type": "Feature", "properties": { "FEATURE_NAME": "glover cove", "FEATURE_CLASS": "Valley", "STATE_ALPHA": "AL", "STATE_NUMERIC": 1, "COUNTY_NAME": "Madison", "COUNTY_NUMERIC": 89.0, "PRIM_LAT_DEC": 34.6150895, "PRIM_LONG_DEC": -86.3966534, "ELEV_IN_M": 193.0, "ELEV_IN_FT": 633.0, "MAP_NAME": "New Hope" }, "geometry": { "type": "Point", "coordinates": [ -86.3966534, 34.6150895 ] } },
{ "type": "Feature", "properties": { "FEATURE_NAME": "glover creek", "FEATURE_CLASS": "Stream", "STATE_ALPHA": "AL", "STATE_NUMERIC": 1, "COUNTY_NAME": "Jackson", "COUNTY_NUMERIC": 71.0, "PRIM_LAT_DEC": 34.9373025, "PRIM_LONG_DEC": -85.6880256, "ELEV_IN_M": 181.0, "ELEV_IN_FT": 594.0, "MAP_NAME": "Bridgeport" }, "geometry": { "type": "Point", "coordinates": [ -85.688025599999989, 34.9373025 ] } },
{ "type": "Feature", "properties": { "FEATURE_NAME": "glover creek", "FEATURE_CLASS": "Stream", "STATE_ALPHA": "AL", "STATE_NUMERIC": 1, "COUNTY_NAME": "Wilcox", "COUNTY_NUMERIC": 131.0, "PRIM_LAT_DEC": 32.2637519, "PRIM_LONG_DEC": -87.4716661, "ELEV_IN_M": 47.0, "ELEV_IN_FT": 154.0, "MAP_NAME": "Central Mills" }, "geometry": { "type": "Point", "coordinates": [ -87.4716661, 32.2637519 ] } },
{ "type": "Feature", "properties": { "FEATURE_NAME": "glover mountain", "FEATURE_CLASS": "Summit", "STATE_ALPHA": "AL", "STATE_NUMERIC": 1, "COUNTY_NAME": "Shelby", "COUNTY_NUMERIC": 117.0, "PRIM_LAT_DEC": 33.4378853, "PRIM_LONG_DEC": -86.4033132, "ELEV_IN_M": 171.0, "ELEV_IN_FT": 561.0, "MAP_NAME": "Vincent" }, "geometry": { "type": "Point", "coordinates": [ -86.4033132, 33.4378853 ] } },
{ "type": "Feature", "properties": { "FEATURE_NAME": "glovers primitive baptist church", "FEATURE_CLASS": "Church", "STATE_ALPHA": "AL", "STATE_NUMERIC": 1, "COUNTY_NAME": "Marengo", "COUNTY_NUMERIC": 91.0, "PRIM_LAT_DEC": 32.2645861, "PRIM_LONG_DEC": -87.5691694, "ELEV_IN_M": 72.0, "ELEV_IN_FT": 236.0, "MAP_NAME": "Thomaston East" }, "geometry": { "type": "Point", "coordinates": [ -87.5691694, 32.2645861 ] } },
{ "type": "Feature", "properties": { "FEATURE_NAME": "glovers church", "FEATURE_CLASS": "Church", "STATE_ALPHA": "AL", "STATE_NUMERIC": 1, "COUNTY_NAME": "Russell", "COUNTY_NUMERIC": 113.0, "PRIM_LAT_DEC": 32.5073631, "PRIM_LONG_DEC": -85.0554899, "ELEV_IN_M": 141.0, "ELEV_IN_FT": 463.0, "MAP_NAME": "Smiths Station" }, "geometry": { "type": "Point", "coordinates": [ -85.055489900000012, 32.5073631 ] } },
{ "type": "Feature", "properties": { "FEATURE_NAME": "love cemetery", "FEATURE_CLASS": "Cemetery", "STATE_ALPHA": "AL", "STATE_NUMERIC": 1, "COUNTY_NAME": "Lawrence", "COUNTY_NUMERIC": 79.0, "PRIM_LAT_DEC": 34.5548088, "PRIM_LONG_DEC": -87.461686, "ELEV_IN_M": 195.0, "ELEV_IN_FT": 640.0, "MAP_NAME": "Hatton" }, "geometry": { "type": "Point", "coordinates": [ -87.461686, 34.5548088 ] } },
{ "type": "Feature", "properties": { "FEATURE_NAME": "love chapel", "FEATURE_CLASS": "Church", "STATE_ALPHA": "AL", "STATE_NUMERIC": 1, "COUNTY_NAME": "Morgan", "COUNTY_NUMERIC": 103.0, "PRIM_LAT_DEC": 34.6006478, "PRIM_LONG_DEC": -87.0889016, "ELEV_IN_M": 201.0, "ELEV_IN_FT": 659.0, "MAP_NAME": "Trinity" }, "geometry": { "type": "Point", "coordinates": [ -87.0889016, 34.6006478 ] } },
{ "type": "Feature", "properties": { "FEATURE_NAME": "love ditch", "FEATURE_CLASS": "Stream", "STATE_ALPHA": "AL", "STATE_NUMERIC": 1, "COUNTY_NAME": "Madison", "COUNTY_NUMERIC": 89.0, "PRIM_LAT_DEC": 34.8536994, "PRIM_LONG_DEC": -86.7855559, "ELEV_IN_M": 226.0, "ELEV_IN_FT": 741.0, "MAP_NAME": "Capshaw" }, "geometry": { "type": "Point", "coordinates": [ -86.7855559, 34.8536994 ] } },
{ "type": "Feature", "properties": { "FEATURE_NAME": "love hill", "FEATURE_CLASS": "Populated Place", "STATE_ALPHA": "AL", "STATE_NUMERIC": 1, "COUNTY_NAME": "Houston", "COUNTY_NUMERIC": 69.0, "PRIM_LAT_DEC": 31.1160136, "PRIM_LONG_DEC": -85.2738214, "ELEV_IN_M": 74.0, "ELEV_IN_FT": 243.0, "MAP_NAME": "Cottonwood" }, "geometry": { "type": "Point", "coordinates": [ -85.2738214, 31.1160136 ] } },
{ "type": "Feature", "properties": { "FEATURE_NAME": "love joy church", "FEATURE_CLASS": "Church", "STATE_ALPHA": "AL", "STATE_NUMERIC": 1, "COUNTY_NAME": "Lamar", "COUNTY_NUMERIC": 75.0, "PRIM_LAT_DEC": 33.8953833, "PRIM_LONG_DEC": -87.9905837, "ELEV_IN_M": 181.0, "ELEV_IN_FT": 594.0, "MAP_NAME": "Guin" }, "geometry": { "type": "Point", "coordinates": [ -87.9905837, 33.8953833 ] } },
{ "type": "Feature", "properties": { "FEATURE_NAME": "love joy church", "FEATURE_CLASS": "Church", "STATE_ALPHA": "AL", "STATE_NUMERIC": 1, "COUNTY_NAME": "Marion", "COUNTY_NUMERIC": 93.0, "PRIM_LAT_DEC": 34.1737117, "PRIM_LONG_DEC": -87.9600326, "ELEV_IN_M": 214.0, "ELEV_IN_FT": 702.0, "MAP_NAME": "Hamilton" }, "geometry": { "type": "Point", "coordinates": [ -87.9600326, 34.1737117 ] } },
{ "type": "Feature", "properties": { "FEATURE_NAME": "lovelady cemetery", "FEATURE_CLASS": "Cemetery", "STATE_ALPHA": "AL", "STATE_NUMERIC": 1, "COUNTY_NAME": "Chilton", "COUNTY_NUMERIC": 21.0, "PRIM_LAT_DEC": 32.740956, "PRIM_LONG_DEC": -87.0027647, "ELEV_IN_M": 189.0, "ELEV_IN_FT": 620.0, "MAP_NAME": "Buck Creek" }, "geometry": { "type": "Point", "coordinates": [ -87.0027647, 32.740956 ] } },
{ "type": "Feature", "properties": { "FEATURE_NAME": "lovelady cemetery", "FEATURE_CLASS": "Cemetery", "STATE_ALPHA": "AL", "STATE_NUMERIC": 1, "COUNTY_NAME": "Jackson", "COUNTY_NUMERIC": 71.0, "PRIM_LAT_DEC": 34.777299, "PRIM_LONG_DEC": -85.8949691, "ELEV_IN_M": 191.0, "ELEV_IN_FT": 627.0, "MAP_NAME": "Wannville" }, "geometry": { "type": "Point", "coordinates": [ -85.8949691, 34.777299 ] } },
{ "type": "Feature", "properties": { "FEATURE_NAME": "lovelady cemetery", "FEATURE_CLASS": "Cemetery", "STATE_ALPHA": "AL", "STATE_NUMERIC": 1, "COUNTY_NAME": "Jackson", "COUNTY_NUMERIC": 71.0, "PRIM_LAT_DEC": 34.8439652, "PRIM_LONG_DEC": -85.923029, "ELEV_IN_M": 201.0, "ELEV_IN_FT": 659.0, "MAP_NAME": "Wannville" }, "geometry": { "type": "Point", "coordinates": [ -85.923029, 34.8439652 ] } },
{ "type": "Feature", "properties": { "FEATURE_NAME": "loveless park", "FEATURE_CLASS": "Populated Place", "STATE_ALPHA": "AL", "STATE_NUMERIC": 1, "COUNTY_NAME": "Jefferson", "COUNTY_NUMERIC": 73.0, "PRIM_LAT_DEC": 33.3245569, "PRIM_LONG_DEC": -86.9822148, "ELEV_IN_M": 164.0, "ELEV_IN_FT": 538.0, "MAP_NAME": "Greenwood" }, "geometry": { "type": "Point", "coordinates": [ -86.9822148, 33.3245569 ] } },
{ "type": "Feature", "properties": { "FEATURE_NAME": "lovely baptist church", "FEATURE_CLASS": "Church", "STATE_ALPHA": "AL", "STATE_NUMERIC": 1, "COUNTY_NAME": "Marengo", "COUNTY_NUMERIC": 91.0, "PRIM_LAT_DEC": 32.3626405, "PRIM_LONG_DEC": -87.7477875, "ELEV_IN_M": 37.0, "ELEV_IN_FT": 121.0, "MAP_NAME": "Thomaston West" }, "geometry": { "type": "Point", "coordinates": [ -87.7477875, 32.3626405 ] } },
{ "type": "Feature", "properties": { "FEATURE_NAME": "lovers leap", "FEATURE_CLASS": "Cliff", "STATE_ALPHA": "AL", "STATE_NUMERIC": 1, "COUNTY_NAME": "Morgan", "COUNTY_NUMERIC": 103.0, "PRIM_LAT_DEC": 34.3950945, "PRIM_LONG_DEC": -86.7541657, "ELEV_IN_M": 311.0, "ELEV_IN_FT": 1020.0, "MAP_NAME": "Somerville" }, "geometry": { "type": "Point", "coordinates": [ -86.7541657, 34.3950945 ] } },
{ "type": "Feature", "properties": { "FEATURE_NAME": "lovers leap", "FEATURE_CLASS": "Locale", "STATE_ALPHA": "AL", "STATE_NUMERIC": 1, "COUNTY_NAME": "Jefferson", "COUNTY_NUMERIC": 73.0, "PRIM_LAT_DEC": 33.4117757, "PRIM_LONG_DEC": -86.8563793, "ELEV_IN_M": 330.0, "ELEV_IN_FT": 1083.0, "MAP_NAME": "Birmingham South" }, "geometry": { "type": "Point", "coordinates": [ -86.8563793, 33.4117757 ] } },
{ "type": "Feature", "properties": { "FEATURE_NAME": "cloverdale lake dam", "FEATURE_CLASS": "Dam", "STATE_ALPHA": "AL", "STATE_NUMERIC": 1, "COUNTY_NAME": "Mobile", "COUNTY_NUMERIC": 97.0, "PRIM_LAT_DEC": 30.4985305, "PRIM_LONG_DEC": -88.3800101, "ELEV_IN_M": 13.0, "ELEV_IN_FT": 43.0, "MAP_NAME": "Kreole" }, "geometry": { "type": "Point", "coordinates": [ -88.3800101, 30.4985305 ] } },
{ "type": "Feature", "properties": { "FEATURE_NAME": "cloverdale baptist church", "FEATURE_CLASS": "Church", "STATE_ALPHA": "AL", "STATE_NUMERIC": 1, "COUNTY_NAME": "Houston", "COUNTY_NUMERIC": 69.0, "PRIM_LAT_DEC": 31.1923989, "PRIM_LONG_DEC": -85.3907666, "ELEV_IN_M": 98.0, "ELEV_IN_FT": 322.0, "MAP_NAME": "Dothan West" }, "geometry": { "type": "Point", "coordinates": [ -85.3907666, 31.1923989 ] } },
{ "type": "Feature", "properties": { "FEATURE_NAME": "cloverdale methodist church", "FEATURE_CLASS": "Church", "STATE_ALPHA": "AL", "STATE_NUMERIC": 1, "COUNTY_NAME": "Houston", "COUNTY_NUMERIC": 69.0, "PRIM_LAT_DEC": 31.1985098, "PRIM_LONG_DEC": -85.3929889, "ELEV_IN_M": 95.0, "ELEV_IN_FT": 312.0, "MAP_NAME": "Dothan West" }, "geometry": { "type": "Point", "coordinates": [ -85.3929889, 31.1985098 ] } },
{ "type": "Feature", "properties": { "FEATURE_NAME": "love hill church", "FEATURE_CLASS": "Church", "STATE_ALPHA": "AL", "STATE_NUMERIC": 1, "COUNTY_NAME": "Houston", "COUNTY_NUMERIC": 69.0, "PRIM_LAT_DEC": 31.1129582, "PRIM_LONG_DEC": -85.2760436, "ELEV_IN_M": 74.0, "ELEV_IN_FT": 243.0, "MAP_NAME": "Cottonwood" }, "geometry": { "type": "Point", "coordinates": [ -85.2760436, 31.1129582 ] } },
{ "type": "Feature", "properties": { "FEATURE_NAME": "cloverleaf camp", "FEATURE_CLASS": "Locale", "STATE_ALPHA": "AL", "STATE_NUMERIC": 1, "COUNTY_NAME": "Baldwin", "COUNTY_NUMERIC": 3.0, "PRIM_LAT_DEC": 30.7537996, "PRIM_LONG_DEC": -87.9152731, "ELEV_IN_M": 16.0, "ELEV_IN_FT": 52.0, "MAP_NAME": "Hurricane" }, "geometry": { "type": "Point", "coordinates": [ -87.9152731, 30.7537996 ] } },
{ "type": "Feature", "properties": { "FEATURE_NAME": "clover valley pond", "FEATURE_CLASS": "Lake", "STATE_ALPHA": "AL", "STATE_NUMERIC": 1, "COUNTY_NAME": "Cullman", "COUNTY_NUMERIC": 43.0, "PRIM_LAT_DEC": 34.0821378, "PRIM_LONG_DEC": -86.9364918, "ELEV_IN_M": 179.0, "ELEV_IN_FT": 587.0, "MAP_NAME": "Trimble" }, "geometry": { "type": "Point", "coordinates": [ -86.9364918, 34.0821378 ] } },
{ "type": "Feature", "properties": { "FEATURE_NAME": "clover hill church", "FEATURE_CLASS": "Church", "STATE_ALPHA": "AL", "STATE_NUMERIC": 1, "COUNTY_NAME": "Lowndes", "COUNTY_NUMERIC": 85.0, "PRIM_LAT_DEC": 31.9993143, "PRIM_LONG_DEC": -86.6991448, "ELEV_IN_M": 116.0, "ELEV_IN_FT": 381.0, "MAP_NAME": "Fort Dale" }, "geometry": { "type": "Point", "coordinates": [ -86.6991448, 31.9993143 ] } },
{ "type": "Feature", "properties": { "FEATURE_NAME": "lovettville", "FEATURE_CLASS": "Populated Place", "STATE_ALPHA": "AL", "STATE_NUMERIC": 1, "COUNTY_NAME": "Lawrence", "COUNTY_NUMERIC": 79.0, "PRIM_LAT_DEC": 34.64898, "PRIM_LONG_DEC": -87.210573, "ELEV_IN_M": 181.0, "ELEV_IN_FT": 594.0, "MAP_NAME": "Hillsboro" }, "geometry": { "type": "Point", "coordinates": [ -87.210573, 34.64898 ] } },
{ "type": "Feature", "properties": { "FEATURE_NAME": "lovejoy cemetery", "FEATURE_CLASS": "Cemetery", "STATE_ALPHA": "AL", "STATE_NUMERIC": 1, "COUNTY_NAME": "Elmore", "COUNTY_NUMERIC": 51.0, "PRIM_LAT_DEC": 32.703457, "PRIM_LONG_DEC": -85.939957, "ELEV_IN_M": 158.0, "ELEV_IN_FT": 518.0, "MAP_NAME": "Red Hill" }, "geometry": { "type": "Point", "coordinates": [ -85.939957, 32.703457 ] } },
{ "type": "Feature", "properties": { "FEATURE_NAME": "glovers ferry (historical)", "FEATURE_CLASS": "Crossing", "STATE_ALPHA": "AL", "STATE_NUMERIC": 1, "COUNTY_NAME": "Greene", "COUNTY_NUMERIC": 63.0, "PRIM_LAT_DEC": 32.5473577, "PRIM_LONG_DEC": -87.8436244, "ELEV_IN_M": 22.0, "ELEV_IN_FT": 72.0, "MAP_NAME": "Demopolis" }, "geometry": { "type": "Point", "coordinates": [ -87.84362440000001, 32.5473577 ] } },
{ "type": "Feature", "properties": { "FEATURE_NAME": "lovell chapel (historical)", "FEATURE_CLASS": "Church", "STATE_ALPHA": "AL", "STATE_NUMERIC": 1, "COUNTY_NAME": "Limestone", "COUNTY_NUMERIC": 83.0, "PRIM_LAT_DEC": 34.9203629, "PRIM_LONG_DEC": -87.1233461, "ELEV_IN_M": 224.0, "ELEV_IN_FT": 735.0, "MAP_NAME": "Salem" }, "geometry": { "type": "Point", "coordinates": [ -87.1233461, 34.9203629 ] } },
{ "type": "Feature", "properties": { "FEATURE_NAME": "lovejoy cemetery", "FEATURE_CLASS": "Cemetery", "STATE_ALPHA": "AL", "STATE_NUMERIC": 1, "COUNTY_NAME": "Marion", "COUNTY_NUMERIC": 93.0, "PRIM_LAT_DEC": 34.1734275, "PRIM_LONG_DEC": -87.9603052, "ELEV_IN_M": 213.0, "ELEV_IN_FT": 699.0, "MAP_NAME": "Hamilton" }, "geometry": { "type": "Point", "coordinates": [ -87.9603052, 34.1734275 ] } },
{ "type": "Feature", "properties": { "FEATURE_NAME": "cloverleaf", "FEATURE_CLASS": "Populated Place", "STATE_ALPHA": "AL", "STATE_NUMERIC": 1, "COUNTY_NAME": "Lee", "COUNTY_NUMERIC": 81.0, "PRIM_LAT_DEC": 32.5881906, "PRIM_LONG_DEC": -85.4793934, "ELEV_IN_M": 186.0, "ELEV_IN_FT": 610.0, "MAP_NAME": "Auburn" }, "geometry": { "type": "Point", "coordinates": [ -85.4793934, 32.5881906 ] } },
{ "type": "Feature", "properties": { "FEATURE_NAME": "lovers leap", "FEATURE_CLASS": "Cliff", "STATE_ALPHA": "AL", "STATE_NUMERIC": 1, "COUNTY_NAME": "Washington", "COUNTY_NUMERIC": 129.0, "PRIM_LAT_DEC": 31.5676626, "PRIM_LONG_DEC": -88.0372265, "ELEV_IN_M": 13.0, "ELEV_IN_FT": 43.0, "MAP_NAME": "Saint Stephens" }, "geometry": { "type": "Point", "coordinates": [ -88.0372265, 31.5676626 ] } },
{ "type": "Feature", "properties": { "FEATURE_NAME": "lovelace landing (historical)", "FEATURE_CLASS": "Locale", "STATE_ALPHA": "AL", "STATE_NUMERIC": 1, "COUNTY_NAME": "Marshall", "COUNTY_NUMERIC": 95.0, "PRIM_LAT_DEC": 34.3909236, "PRIM_LONG_DEC": -86.2302583, "ELEV_IN_M": 181.0, "ELEV_IN_FT": 594.0, "MAP_NAME": "Columbus City" }, "geometry": { "type": "Point", "coordinates": [ -86.2302583, 34.3909236 ] } },
{ "type": "Feature", "properties": { "FEATURE_NAME": "truelove church", "FEATURE_CLASS": "Church", "STATE_ALPHA": "AL", "STATE_NUMERIC": 1, "COUNTY_NAME": "Jefferson", "COUNTY_NUMERIC": 73.0, "PRIM_LAT_DEC": 33.6123271, "PRIM_LONG_DEC": -86.9063827, "ELEV_IN_M": 128.0, "ELEV_IN_FT": 420.0, "MAP_NAME": "Adamsville" }, "geometry": { "type": "Point", "coordinates": [ -86.9063827, 33.6123271 ] } },
{ "type": "Feature", "properties": { "FEATURE_NAME": "cloverleaf", "FEATURE_CLASS": "Populated Place", "STATE_ALPHA": "AL", "STATE_NUMERIC": 1, "COUNTY_NAME": "Limestone", "COUNTY_NUMERIC": 83.0, "PRIM_LAT_DEC": 34.7806445, "PRIM_LONG_DEC": -86.9522289, "ELEV_IN_M": 206.0, "ELEV_IN_FT": 676.0, "MAP_NAME": "Athens" }, "geometry": { "type": "Point", "coordinates": [ -86.9522289, 34.7806445 ] } },
{ "type": "Feature", "properties": { "FEATURE_NAME": "lovelace school (historical)", "FEATURE_CLASS": "School", "STATE_ALPHA": "AL", "STATE_NUMERIC": 1, "COUNTY_NAME": "Lauderdale", "COUNTY_NUMERIC": 77.0, "PRIM_LAT_DEC": 34.8581426, "PRIM_LONG_DEC": -87.7669742, "ELEV_IN_M": 175.0, "ELEV_IN_FT": 574.0, "MAP_NAME": "Sinking Creek" }, "geometry": { "type": "Point", "coordinates": [ -87.7669742, 34.8581426 ] } },
{ "type": "Feature", "properties": { "FEATURE_NAME": "cloverdale", "FEATURE_CLASS": "Populated Place", "STATE_ALPHA": "AL", "STATE_NUMERIC": 1, "COUNTY_NAME": "Mobile", "COUNTY_NUMERIC": 97.0, "PRIM_LAT_DEC": 30.5015861, "PRIM_LONG_DEC": -88.3888994, "ELEV_IN_M": 16.0, "ELEV_IN_FT": 52.0, "MAP_NAME": "Big Point" }, "geometry": { "type": "Point", "coordinates": [ -88.3888994, 30.5015861 ] } },
{ "type": "Feature", "properties": { "FEATURE_NAME": "cloverleaf baptist church", "FEATURE_CLASS": "Church", "STATE_ALPHA": "AL", "STATE_NUMERIC": 1, "COUNTY_NAME": "Mobile", "COUNTY_NUMERIC": 97.0, "PRIM_LAT_DEC": 30.5893597, "PRIM_LONG_DEC": -88.1922248, "ELEV_IN_M": 53.0, "ELEV_IN_FT": 174.0, "MAP_NAME": "Theodore" }, "geometry": { "type": "Point", "coordinates": [ -88.1922248, 30.5893597 ] } },
{ "type": "Feature", "properties": { "FEATURE_NAME": "cloverleaf plaza shopping center", "FEATURE_CLASS": "Locale", "STATE_ALPHA": "AL", "STATE_NUMERIC": 1, "COUNTY_NAME": "Mobile", "COUNTY_NUMERIC": 97.0, "PRIM_LAT_DEC": 30.5904707, "PRIM_LONG_DEC": -88.1666684, "ELEV_IN_M": 23.0, "ELEV_IN_FT": 75.0, "MAP_NAME": "Theodore" }, "geometry": { "type": "Point", "coordinates": [ -88.1666684, 30.5904707 ] } },
{ "type": "Feature", "properties": { "FEATURE_NAME": "christian love spiritual church", "FEATURE_CLASS": "Church", "STATE_ALPHA": "AL", "STATE_NUMERIC": 1, "COUNTY_NAME": "Jefferson", "COUNTY_NUMERIC": 73.0, "PRIM_LAT_DEC": 33.5167722, "PRIM_LONG_DEC": -86.8327684, "ELEV_IN_M": 176.0, "ELEV_IN_FT": 577.0, "MAP_NAME": "Birmingham North" }, "geometry": { "type": "Point", "coordinates": [ -86.8327684, 33.5167722 ] } },
{ "type": "Feature", "properties": { "FEATURE_NAME": "lovelace bridge", "FEATURE_CLASS": "Bridge", "STATE_ALPHA": "AL", "STATE_NUMERIC": 1, "COUNTY_NAME": "Jefferson", "COUNTY_NUMERIC": 73.0, "PRIM_LAT_DEC": 33.2951134, "PRIM_LONG_DEC": -86.983048, "ELEV_IN_M": 145.0, "ELEV_IN_FT": 476.0, "MAP_NAME": "Greenwood" }, "geometry": { "type": "Point", "coordinates": [ -86.983048, 33.2951134 ] } },
{ "type": "Feature", "properties": { "FEATURE_NAME": "glovers (historical)", "FEATURE_CLASS": "Locale", "STATE_ALPHA": "AL", "STATE_NUMERIC": 1, "COUNTY_NAME": "Talladega", "COUNTY_NUMERIC": 121.0, "PRIM_LAT_DEC": 33.3290005, "PRIM_LONG_DEC": -86.1533055, "ELEV_IN_M": 175.0, "ELEV_IN_FT": 574.0, "MAP_NAME": "Winterboro" }, "geometry": { "type": "Point", "coordinates": [ -86.1533055, 33.3290005 ] } },
{ "type": "Feature", "properties": { "FEATURE_NAME": "glovers ferry (historical)", "FEATURE_CLASS": "Crossing", "STATE_ALPHA": "AL", "STATE_NUMERIC": 1, "COUNTY_NAME": "Talladega", "COUNTY_NUMERIC": 121.0, "PRIM_LAT_DEC": 33.3876093, "PRIM_LONG_DEC": -86.3788678, "ELEV_IN_M": 120.0, "ELEV_IN_FT": 394.0, "MAP_NAME": "Vincent" }, "geometry": { "type": "Point", "coordinates": [ -86.3788678, 33.3876093 ] } },
{ "type": "Feature", "properties": { "FEATURE_NAME": "glovers point park", "FEATURE_CLASS": "Park", "STATE_ALPHA": "AL", "STATE_NUMERIC": 1, "COUNTY_NAME": "Talladega", "COUNTY_NUMERIC": 121.0, "PRIM_LAT_DEC": 33.3898314, "PRIM_LONG_DEC": -86.3777567, "ELEV_IN_M": 125.0, "ELEV_IN_FT": 410.0, "MAP_NAME": "Vincent" }, "geometry": { "type": "Point", "coordinates": [ -86.3777567, 33.3898314 ] } },
{ "type": "Feature", "properties": { "FEATURE_NAME": "cloverdale", "FEATURE_CLASS": "Populated Place", "STATE_ALPHA": "AL", "STATE_NUMERIC": 1, "COUNTY_NAME": "Shelby", "COUNTY_NUMERIC": 117.0, "PRIM_LAT_DEC": 33.4528849, "PRIM_LONG_DEC": -86.3855352, "ELEV_IN_M": 136.0, "ELEV_IN_FT": 446.0, "MAP_NAME": "Vincent" }, "geometry": { "type": "Point", "coordinates": [ -86.3855352, 33.4528849 ] } },
{ "type": "Feature", "properties": { "FEATURE_NAME": "glover cove creek", "FEATURE_CLASS": "Stream", "STATE_ALPHA": "AL", "STATE_NUMERIC": 1, "COUNTY_NAME": "Madison", "COUNTY_NUMERIC": 89.0, "PRIM_LAT_DEC": 34.5923127, "PRIM_LONG_DEC": -86.4619324, "ELEV_IN_M": 170.0, "ELEV_IN_FT": 558.0, "MAP_NAME": "New Hope" }, "geometry": { "type": "Point", "coordinates": [ -86.4619324, 34.5923127 ] } },
{ "type": "Feature", "properties": { "FEATURE_NAME": "love-wilburn cemetery", "FEATURE_CLASS": "Cemetery", "STATE_ALPHA": "AL", "STATE_NUMERIC": 1, "COUNTY_NAME": "Madison", "COUNTY_NUMERIC": 89.0, "PRIM_LAT_DEC": 34.8048054, "PRIM_LONG_DEC": -86.6841583, "ELEV_IN_M": 235.0, "ELEV_IN_FT": 771.0, "MAP_NAME": "Jeff" }, "geometry": { "type": "Point", "coordinates": [ -86.6841583, 34.8048054 ] } },
{ "type": "Feature", "properties": { "FEATURE_NAME": "cloverdale", "FEATURE_CLASS": "Populated Place", "STATE_ALPHA": "AL", "STATE_NUMERIC": 1, "COUNTY_NAME": "Montgomery", "COUNTY_NUMERIC": 101.0, "PRIM_LAT_DEC": 32.350139, "PRIM_LONG_DEC": -86.2958019, "ELEV_IN_M": 76.0, "ELEV_IN_FT": 249.0, "MAP_NAME": "Montgomery South" }, "geometry": { "type": "Point", "coordinates": [ -86.295801900000015, 32.350139 ] } },
{ "type": "Feature", "properties": { "FEATURE_NAME": "cloverdale baptist church", "FEATURE_CLASS": "Church", "STATE_ALPHA": "AL", "STATE_NUMERIC": 1, "COUNTY_NAME": "Montgomery", "COUNTY_NUMERIC": 101.0, "PRIM_LAT_DEC": 32.3512501, "PRIM_LONG_DEC": -86.2977464, "ELEV_IN_M": 76.0, "ELEV_IN_FT": 249.0, "MAP_NAME": "Montgomery South" }, "geometry": { "type": "Point", "coordinates": [ -86.2977464, 32.3512501 ] } },
{ "type": "Feature", "properties": { "FEATURE_NAME": "cloverdale christian church", "FEATURE_CLASS": "Church", "STATE_ALPHA": "AL", "STATE_NUMERIC": 1, "COUNTY_NAME": "Montgomery", "COUNTY_NUMERIC": 101.0, "PRIM_LAT_DEC": 32.3520834, "PRIM_LONG_DEC": -86.2924685, "ELEV_IN_M": 71.0, "ELEV_IN_FT": 233.0, "MAP_NAME": "Montgomery South" }, "geometry": { "type": "Point", "coordinates": [ -86.292468500000012, 32.3520834 ] } },
{ "type": "Feature", "properties": { "FEATURE_NAME": "cloverdale church of christ", "FEATURE_CLASS": "Church", "STATE_ALPHA": "AL", "STATE_NUMERIC": 1, "COUNTY_NAME": "Montgomery", "COUNTY_NUMERIC": 101.0, "PRIM_LAT_DEC": 32.3448613, "PRIM_LONG_DEC": -86.3027465, "ELEV_IN_M": 66.0, "ELEV_IN_FT": 217.0, "MAP_NAME": "Montgomery South" }, "geometry": { "type": "Point", "coordinates": [ -86.3027465, 32.3448613 ] } },
{ "type": "Feature", "properties": { "FEATURE_NAME": "cloverland", "FEATURE_CLASS": "Populated Place", "STATE_ALPHA": "AL", "STATE_NUMERIC": 1, "COUNTY_NAME": "Montgomery", "COUNTY_NUMERIC": 101.0, "PRIM_LAT_DEC": 32.3409725, "PRIM_LONG_DEC": -86.3052465, "ELEV_IN_M": 66.0, "ELEV_IN_FT": 217.0, "MAP_NAME": "Montgomery South" }, "geometry": { "type": "Point", "coordinates": [ -86.3052465, 32.3409725 ] } },
{ "type": "Feature", "properties": { "FEATURE_NAME": "cloverland shopping center", "FEATURE_CLASS": "Locale", "STATE_ALPHA": "AL", "STATE_NUMERIC": 1, "COUNTY_NAME": "Montgomery", "COUNTY_NUMERIC": 101.0, "PRIM_LAT_DEC": 32.3359727, "PRIM_LONG_DEC": -86.3069131, "ELEV_IN_M": 61.0, "ELEV_IN_FT": 200.0, "MAP_NAME": "Montgomery South" }, "geometry": { "type": "Point", "coordinates": [ -86.306913099999989, 32.3359727 ] } },
{ "type": "Feature", "properties": { "FEATURE_NAME": "cloverdale", "FEATURE_CLASS": "Populated Place", "STATE_ALPHA": "AL", "STATE_NUMERIC": 1, "COUNTY_NAME": "Tuscaloosa", "COUNTY_NUMERIC": 125.0, "PRIM_LAT_DEC": 33.2001187, "PRIM_LONG_DEC": -87.5402838, "ELEV_IN_M": 66.0, "ELEV_IN_FT": 217.0, "MAP_NAME": "Tuscaloosa" }, "geometry": { "type": "Point", "coordinates": [ -87.5402838, 33.2001187 ] } },
{ "type": "Feature", "properties": { "FEATURE_NAME": "cloverdale estates", "FEATURE_CLASS": "Populated Place", "STATE_ALPHA": "AL", "STATE_NUMERIC": 1, "COUNTY_NAME": "Tuscaloosa", "COUNTY_NUMERIC": 125.0, "PRIM_LAT_DEC": 33.2506733, "PRIM_LONG_DEC": -87.6258419, "ELEV_IN_M": 72.0, "ELEV_IN_FT": 236.0, "MAP_NAME": "Lake Lurleen" }, "geometry": { "type": "Point", "coordinates": [ -87.625841900000012, 33.2506733 ] } },
{ "type": "Feature", "properties": { "FEATURE_NAME": "ed e love water treatment plant", "FEATURE_CLASS": "Locale", "STATE_ALPHA": "AL", "STATE_NUMERIC": 1, "COUNTY_NAME": "Tuscaloosa", "COUNTY_NUMERIC": 125.0, "PRIM_LAT_DEC": 33.2173404, "PRIM_LONG_DEC": -87.5219499, "ELEV_IN_M": 93.0, "ELEV_IN_FT": 305.0, "MAP_NAME": "Tuscaloosa" }, "geometry": { "type": "Point", "coordinates": [ -87.52194990000001, 33.2173404 ] } },
{ "type": "Feature", "properties": { "FEATURE_NAME": "glover cemetery", "FEATURE_CLASS": "Cemetery", "STATE_ALPHA": "AL", "STATE_NUMERIC": 1, "COUNTY_NAME": "Shelby", "COUNTY_NUMERIC": 117.0, "PRIM_LAT_DEC": 33.392325, "PRIM_LONG_DEC": -86.3874743, "ELEV_IN_M": 129.0, "ELEV_IN_FT": 423.0, "MAP_NAME": "Vincent" }, "geometry": { "type": "Point", "coordinates": [ -86.3874743, 33.392325 ] } },
{ "type": "Feature", "properties": { "FEATURE_NAME": "loveless", "FEATURE_CLASS": "Populated Place", "STATE_ALPHA": "AL", "STATE_NUMERIC": 1, "COUNTY_NAME": "DeKalb", "COUNTY_NUMERIC": 49.0, "PRIM_LAT_DEC": 34.3178696, "PRIM_LONG_DEC": -85.7621895, "ELEV_IN_M": 400.0, "ELEV_IN_FT": 1312.0, "MAP_NAME": "Portersville" }, "geometry": { "type": "Point", "coordinates": [ -85.7621895, 34.3178696 ] } },
{ "type": "Feature", "properties": { "FEATURE_NAME": "lovetts creek oil field", "FEATURE_CLASS": "Oilfield", "STATE_ALPHA": "AL", "STATE_NUMERIC": 1, "COUNTY_NAME": "Monroe", "COUNTY_NUMERIC": 99.0, "PRIM_LAT_DEC": 31.4262764, "PRIM_LONG_DEC": -87.5452679, "ELEV_IN_M": 47.0, "ELEV_IN_FT": 154.0, "MAP_NAME": "Flynns Lake" }, "geometry": { "type": "Point", "coordinates": [ -87.5452679, 31.4262764 ] } },
{ "type": "Feature", "properties": { "FEATURE_NAME": "lovelace crossroads", "FEATURE_CLASS": "Populated Place", "STATE_ALPHA": "AL", "STATE_NUMERIC": 1, "COUNTY_NAME": "Lauderdale", "COUNTY_NUMERIC": 77.0, "PRIM_LAT_DEC": 34.8609202, "PRIM_LONG_DEC": -87.7566962, "ELEV_IN_M": 184.0, "ELEV_IN_FT": 604.0, "MAP_NAME": "Sinking Creek" }, "geometry": { "type": "Point", "coordinates": [ -87.7566962, 34.8609202 ] } },
{ "type": "Feature", "properties": { "FEATURE_NAME": "loveless creek", "FEATURE_CLASS": "Stream", "STATE_ALPHA": "AL", "STATE_NUMERIC": 1, "COUNTY_NAME": "Cullman", "COUNTY_NUMERIC": 43.0, "PRIM_LAT_DEC": 34.125376, "PRIM_LONG_DEC": -86.7627761, "ELEV_IN_M": 164.0, "ELEV_IN_FT": 538.0, "MAP_NAME": "Cullman" }, "geometry": { "type": "Point", "coordinates": [ -86.7627761, 34.125376 ] } },
{ "type": "Feature", "properties": { "FEATURE_NAME": "lovetts creek", "FEATURE_CLASS": "Stream", "STATE_ALPHA": "AL", "STATE_NUMERIC": 1, "COUNTY_NAME": "Monroe", "COUNTY_NUMERIC": 99.0, "PRIM_LAT_DEC": 31.431554, "PRIM_LONG_DEC": -87.5761019, "ELEV_IN_M": 1.0, "ELEV_IN_FT": 3.0, "MAP_NAME": "Flynns Lake" }, "geometry": { "type": "Point", "coordinates": [ -87.576101900000012, 31.431554 ] } },
{ "type": "Feature", "properties": { "FEATURE_NAME": "glover ferry (historical)", "FEATURE_CLASS": "Crossing", "STATE_ALPHA": "AL", "STATE_NUMERIC": 1, "COUNTY_NAME": "Jefferson", "COUNTY_NUMERIC": 73.0, "PRIM_LAT_DEC": 33.6445502, "PRIM_LONG_DEC": -87.0227747, "ELEV_IN_M": 108.0, "ELEV_IN_FT": 354.0, "MAP_NAME": "Dora" }, "geometry": { "type": "Point", "coordinates": [ -87.0227747, 33.6445502 ] } },
{ "type": "Feature", "properties": { "FEATURE_NAME": "temple love church", "FEATURE_CLASS": "Church", "STATE_ALPHA": "AL", "STATE_NUMERIC": 1, "COUNTY_NAME": "Dallas", "COUNTY_NUMERIC": 47.0, "PRIM_LAT_DEC": 32.4415248, "PRIM_LONG_DEC": -86.983878, "ELEV_IN_M": 37.0, "ELEV_IN_FT": 121.0, "MAP_NAME": "Burnsville" }, "geometry": { "type": "Point", "coordinates": [ -86.983878, 32.4415248 ] } },
{ "type": "Feature", "properties": { "FEATURE_NAME": "clover hill", "FEATURE_CLASS": "Populated Place", "STATE_ALPHA": "AL", "STATE_NUMERIC": 1, "COUNTY_NAME": "Lowndes", "COUNTY_NUMERIC": 85.0, "PRIM_LAT_DEC": 31.9979255, "PRIM_LONG_DEC": -86.7016448, "ELEV_IN_M": 114.0, "ELEV_IN_FT": 374.0, "MAP_NAME": "Fort Dale" }, "geometry": { "type": "Point", "coordinates": [ -86.7016448, 31.9979255 ] } },
{ "type": "Feature", "properties": { "FEATURE_NAME": "glover", "FEATURE_CLASS": "Populated Place", "STATE_ALPHA": "AL", "STATE_NUMERIC": 1, "COUNTY_NAME": "Clarke", "COUNTY_NUMERIC": 25.0, "PRIM_LAT_DEC": 31.937097, "PRIM_LONG_DEC": -87.8400066, "ELEV_IN_M": 79.0, "ELEV_IN_FT": 259.0, "MAP_NAME": "Bashi" }, "geometry": { "type": "Point", "coordinates": [ -87.8400066, 31.937097 ] } },
{ "type": "Feature", "properties": { "FEATURE_NAME": "shelter of love church", "FEATURE_CLASS": "Church", "STATE_ALPHA": "AL", "STATE_NUMERIC": 1, "COUNTY_NAME": "Pickens", "COUNTY_NUMERIC": 107.0, "PRIM_LAT_DEC": 33.4142856, "PRIM_LONG_DEC": -88.2450338, "ELEV_IN_M": 110.0, "ELEV_IN_FT": 361.0, "MAP_NAME": "Ethelsville" }, "geometry": { "type": "Point", "coordinates": [ -88.2450338, 33.4142856 ] } },
{ "type": "Feature", "properties": { "FEATURE_NAME": "love joy cemetery", "FEATURE_CLASS": "Cemetery", "STATE_ALPHA": "AL", "STATE_NUMERIC": 1, "COUNTY_NAME": "Lamar", "COUNTY_NUMERIC": 75.0, "PRIM_LAT_DEC": 33.8950992, "PRIM_LONG_DEC": -87.9903007, "ELEV_IN_M": 181.0, "ELEV_IN_FT": 594.0, "MAP_NAME": "Guin" }, "geometry": { "type": "Point", "coordinates": [ -87.9903007, 33.8950992 ] } },
{ "type": "Feature", "properties": { "FEATURE_NAME": "glover cemetery", "FEATURE_CLASS": "Cemetery", "STATE_ALPHA": "AL", "STATE_NUMERIC": 1, "COUNTY_NAME": "Fayette", "COUNTY_NUMERIC": 57.0, "PRIM_LAT_DEC": 33.7106565, "PRIM_LONG_DEC": -87.8183466, "ELEV_IN_M": 110.0, "ELEV_IN_FT": 361.0, "MAP_NAME": "Fayette" }, "geometry": { "type": "Point", "coordinates": [ -87.818346599999984, 33.7106565 ] } },
{ "type": "Feature", "properties": { "FEATURE_NAME": "glover creek", "FEATURE_CLASS": "Stream", "STATE_ALPHA": "AL", "STATE_NUMERIC": 1, "COUNTY_NAME": "Winston", "COUNTY_NUMERIC": 133.0, "PRIM_LAT_DEC": 34.1831586, "PRIM_LONG_DEC": -87.2386246, "ELEV_IN_M": 157.0, "ELEV_IN_FT": 515.0, "MAP_NAME": "Addison" }, "geometry": { "type": "Point", "coordinates": [ -87.2386246, 34.1831586 ] } },
{ "type": "Feature", "properties": { "FEATURE_NAME": "joe glover lake", "FEATURE_CLASS": "Reservoir", "STATE_ALPHA": "AL", "STATE_NUMERIC": 1, "COUNTY_NAME": "Hale", "COUNTY_NUMERIC": 65.0, "PRIM_LAT_DEC": 32.8145921, "PRIM_LONG_DEC": -87.4873147, "ELEV_IN_M": 76.0, "ELEV_IN_FT": 249.0, "MAP_NAME": "Hogglesville" }, "geometry": { "type": "Point", "coordinates": [ -87.4873147, 32.8145921 ] } },
{ "type": "Feature", "properties": { "FEATURE_NAME": "joe glover dam", "FEATURE_CLASS": "Dam", "STATE_ALPHA": "AL", "STATE_NUMERIC": 1, "COUNTY_NAME": "Hale", "COUNTY_NUMERIC": 65.0, "PRIM_LAT_DEC": 32.8151278, "PRIM_LONG_DEC": -87.4883371, "ELEV_IN_M": 76.0, "ELEV_IN_FT": 249.0, "MAP_NAME": "Hogglesville" }, "geometry": { "type": "Point", "coordinates": [ -87.4883371, 32.8151278 ] } },
{ "type": "Feature", "properties": { "FEATURE_NAME": "glover cemetery", "FEATURE_CLASS": "Cemetery", "STATE_ALPHA": "AL", "STATE_NUMERIC": 1, "COUNTY_NAME": "Limestone", "COUNTY_NUMERIC": 83.0, "PRIM_LAT_DEC": 34.7298064, "PRIM_LONG_DEC": -86.7952733, "ELEV_IN_M": 220.0, "ELEV_IN_FT": 722.0, "MAP_NAME": "Greenbrier" }, "geometry": { "type": "Point", "coordinates": [ -86.7952733, 34.7298064 ] } },
{ "type": "Feature", "properties": { "FEATURE_NAME": "cloverdale elementary school", "FEATURE_CLASS": "School", "STATE_ALPHA": "AL", "STATE_NUMERIC": 1, "COUNTY_NAME": "Houston", "COUNTY_NUMERIC": 69.0, "PRIM_LAT_DEC": 31.1973987, "PRIM_LONG_DEC": -85.3916, "ELEV_IN_M": 102.0, "ELEV_IN_FT": 335.0, "MAP_NAME": "Dothan West" }, "geometry": { "type": "Point", "coordinates": [ -85.3916, 31.1973987 ] } },
{ "type": "Feature", "properties": { "FEATURE_NAME": "cloverdale junior high school", "FEATURE_CLASS": "School", "STATE_ALPHA": "AL", "STATE_NUMERIC": 1, "COUNTY_NAME": "Lauderdale", "COUNTY_NUMERIC": 77.0, "PRIM_LAT_DEC": 34.9470296, "PRIM_LONG_DEC": -87.7800288, "ELEV_IN_M": 192.0, "ELEV_IN_FT": 630.0, "MAP_NAME": "Threet" }, "geometry": { "type": "Point", "coordinates": [ -87.7800288, 34.9470296 ] } },
{ "type": "Feature", "properties": { "FEATURE_NAME": "loveless elementary school", "FEATURE_CLASS": "School", "STATE_ALPHA": "AL", "STATE_NUMERIC": 1, "COUNTY_NAME": "Montgomery", "COUNTY_NUMERIC": 101.0, "PRIM_LAT_DEC": 32.3656941, "PRIM_LONG_DEC": -86.3238585, "ELEV_IN_M": 76.0, "ELEV_IN_FT": 249.0, "MAP_NAME": "Montgomery South" }, "geometry": { "type": "Point", "coordinates": [ -86.3238585, 32.3656941 ] } },
{ "type": "Feature", "properties": { "FEATURE_NAME": "cloverdale division", "FEATURE_CLASS": "Civil", "STATE_ALPHA": "AL", "STATE_NUMERIC": 1, "COUNTY_NAME": "Lauderdale", "COUNTY_NUMERIC": 77.0, "PRIM_LAT_DEC": 34.9479156, "PRIM_LONG_DEC": -87.783636, "ELEV_IN_M": 193.0, "ELEV_IN_FT": 633.0, "MAP_NAME": "Threet" }, "geometry": { "type": "Point", "coordinates": [ -87.783636, 34.9479156 ] } },
{ "type": "Feature", "properties": { "FEATURE_NAME": "loveland ski area", "FEATURE_CLASS": "Locale", "STATE_ALPHA": "CO", "STATE_NUMERIC": 8, "COUNTY_NAME": "Clear Creek", "COUNTY_NUMERIC": 19.0, "PRIM_LAT_DEC": 39.6780424, "PRIM_LONG_DEC": -105.9011237, "ELEV_IN_M": 3364.0, "ELEV_IN_FT": 11037.0, "MAP_NAME": "Loveland Pass" }, "geometry": { "type": "Point", "coordinates": [ -105.9011237, 39.6780424 ] } },
{ "type": "Feature", "properties": { "FEATURE_NAME": "lovers leap", "FEATURE_CLASS": "Cliff", "STATE_ALPHA": "CO", "STATE_NUMERIC": 8, "COUNTY_NAME": "Larimer", "COUNTY_NUMERIC": 69.0, "PRIM_LAT_DEC": 40.968318, "PRIM_LONG_DEC": -105.362764, "ELEV_IN_M": 2121.0, "ELEV_IN_FT": 6959.0, "MAP_NAME": "Virginia Dale" }, "geometry": { "type": "Point", "coordinates": [ -105.362764, 40.968318 ] } },
{ "type": "Feature", "properties": { "FEATURE_NAME": "glover point", "FEATURE_CLASS": "Cliff", "STATE_ALPHA": "CO", "STATE_NUMERIC": 8, "COUNTY_NAME": "Garfield", "COUNTY_NUMERIC": 45.0, "PRIM_LAT_DEC": 39.5055335, "PRIM_LONG_DEC": -108.1011887, "ELEV_IN_M": 2523.0, "ELEV_IN_FT": 8277.0, "MAP_NAME": "Forked Gulch" }, "geometry": { "type": "Point", "coordinates": [ -108.1011887, 39.5055335 ] } },
{ "type": "Feature", "properties": { "FEATURE_NAME": "cloverleaf valley", "FEATURE_CLASS": "Valley", "STATE_ALPHA": "CO", "STATE_NUMERIC": 8, "COUNTY_NAME": "Jackson", "COUNTY_NUMERIC": 57.0, "PRIM_LAT_DEC": 40.4655517, "PRIM_LONG_DEC": -106.5328781, "ELEV_IN_M": 2585.0, "ELEV_IN_FT": 8481.0, "MAP_NAME": "Rabbit Ears Peak" }, "geometry": { "type": "Point", "coordinates": [ -106.5328781, 40.4655517 ] } },
{ "type": "Feature", "properties": { "FEATURE_NAME": "glover park", "FEATURE_CLASS": "Flat", "STATE_ALPHA": "CO", "STATE_NUMERIC": 8, "COUNTY_NAME": "Garfield", "COUNTY_NUMERIC": 45.0, "PRIM_LAT_DEC": 39.541367, "PRIM_LONG_DEC": -107.9520159, "ELEV_IN_M": 2685.0, "ELEV_IN_FT": 8809.0, "MAP_NAME": "Anvil Points" }, "geometry": { "type": "Point", "coordinates": [ -107.9520159, 39.541367 ] } },
{ "type": "Feature", "properties": { "FEATURE_NAME": "clover gulch", "FEATURE_CLASS": "Valley", "STATE_ALPHA": "CO", "STATE_NUMERIC": 8, "COUNTY_NAME": "Mesa", "COUNTY_NUMERIC": 77.0, "PRIM_LAT_DEC": 39.2379547, "PRIM_LONG_DEC": -107.9908173, "ELEV_IN_M": 1776.0, "ELEV_IN_FT": 5827.0, "MAP_NAME": "Collbran" }, "geometry": { "type": "Point", "coordinates": [ -107.990817299999989, 39.2379547 ] } },
{ "type": "Feature", "properties": { "FEATURE_NAME": "west fork clover gulch", "FEATURE_CLASS": "Valley", "STATE_ALPHA": "CO", "STATE_NUMERIC": 8, "COUNTY_NAME": "Mesa", "COUNTY_NUMERIC": 77.0, "PRIM_LAT_DEC": 39.2747367, "PRIM_LONG_DEC": -107.9863663, "ELEV_IN_M": 1957.0, "ELEV_IN_FT": 6421.0, "MAP_NAME": "Hawxhurst Creek" }, "geometry": { "type": "Point", "coordinates": [ -107.9863663, 39.2747367 ] } },
{ "type": "Feature", "properties": { "FEATURE_NAME": "clover cemetery", "FEATURE_CLASS": "Cemetery", "STATE_ALPHA": "CO", "STATE_NUMERIC": 8, "COUNTY_NAME": "Mesa", "COUNTY_NUMERIC": 77.0, "PRIM_LAT_DEC": 39.2549728, "PRIM_LONG_DEC": -107.9233908, "ELEV_IN_M": 1953.0, "ELEV_IN_FT": 6407.0, "MAP_NAME": "Hawxhurst Creek" }, "geometry": { "type": "Point", "coordinates": [ -107.9233908, 39.2549728 ] } },
{ "type": "Feature", "properties": { "FEATURE_NAME": "clover school", "FEATURE_CLASS": "School", "STATE_ALPHA": "CO", "STATE_NUMERIC": 8, "COUNTY_NAME": "Mesa", "COUNTY_NUMERIC": 77.0, "PRIM_LAT_DEC": 39.2644236, "PRIM_LONG_DEC": -107.8625654, "ELEV_IN_M": 2152.0, "ELEV_IN_FT": 7060.0, "MAP_NAME": "South Mamm Peak" }, "geometry": { "type": "Point", "coordinates": [ -107.8625654, 39.2644236 ] } },
{ "type": "Feature", "properties": { "FEATURE_NAME": "love lake", "FEATURE_CLASS": "Lake", "STATE_ALPHA": "CO", "STATE_NUMERIC": 8, "COUNTY_NAME": "Larimer", "COUNTY_NUMERIC": 69.0, "PRIM_LAT_DEC": 40.389656, "PRIM_LONG_DEC": -105.7602408, "ELEV_IN_M": 3434.0, "ELEV_IN_FT": 11266.0, "MAP_NAME": "Fall River Pass" }, "geometry": { "type": "Point", "coordinates": [ -105.7602408, 40.389656 ] } },
{ "type": "Feature", "properties": { "FEATURE_NAME": "loveland heights", "FEATURE_CLASS": "Populated Place", "STATE_ALPHA": "CO", "STATE_NUMERIC": 8, "COUNTY_NAME": "Larimer", "COUNTY_NUMERIC": 69.0, "PRIM_LAT_DEC": 40.3897059, "PRIM_LONG_DEC": -105.4641626, "ELEV_IN_M": 2226.0, "ELEV_IN_FT": 7303.0, "MAP_NAME": "Glen Haven" }, "geometry": { "type": "Point", "coordinates": [ -105.4641626, 40.3897059 ] } },
{ "type": "Feature", "properties": { "FEATURE_NAME": "loveland powerplant", "FEATURE_CLASS": "Locale", "STATE_ALPHA": "CO", "STATE_NUMERIC": 8, "COUNTY_NAME": "Larimer", "COUNTY_NUMERIC": 69.0, "PRIM_LAT_DEC": 40.4199838, "PRIM_LONG_DEC": -105.2835991, "ELEV_IN_M": 1738.0, "ELEV_IN_FT": 5702.0, "MAP_NAME": "Drake" }, "geometry": { "type": "Point", "coordinates": [ -105.283599099999989, 40.4199838 ] } },
{ "type": "Feature", "properties": { "FEATURE_NAME": "loveland mountain park", "FEATURE_CLASS": "Park", "STATE_ALPHA": "CO", "STATE_NUMERIC": 8, "COUNTY_NAME": "Larimer", "COUNTY_NUMERIC": 69.0, "PRIM_LAT_DEC": 40.4166505, "PRIM_LONG_DEC": -105.2755431, "ELEV_IN_M": 1776.0, "ELEV_IN_FT": 5827.0, "MAP_NAME": "Drake" }, "geometry": { "type": "Point", "coordinates": [ -105.2755431, 40.4166505 ] } },
{ "type": "Feature", "properties": { "FEATURE_NAME": "loveland water tanks", "FEATURE_CLASS": "Locale", "STATE_ALPHA": "CO", "STATE_NUMERIC": 8, "COUNTY_NAME": "Larimer", "COUNTY_NUMERIC": 69.0, "PRIM_LAT_DEC": 40.4091503, "PRIM_LONG_DEC": -105.151094, "ELEV_IN_M": 1574.0, "ELEV_IN_FT": 5164.0, "MAP_NAME": "Masonville" }, "geometry": { "type": "Point", "coordinates": [ -105.151094, 40.4091503 ] } },
{ "type": "Feature", "properties": { "FEATURE_NAME": "loveland filtration plant", "FEATURE_CLASS": "Locale", "STATE_ALPHA": "CO", "STATE_NUMERIC": 8, "COUNTY_NAME": "Larimer", "COUNTY_NUMERIC": 69.0, "PRIM_LAT_DEC": 40.4258169, "PRIM_LONG_DEC": -105.2088737, "ELEV_IN_M": 1594.0, "ELEV_IN_FT": 5230.0, "MAP_NAME": "Masonville" }, "geometry": { "type": "Point", "coordinates": [ -105.2088737, 40.4258169 ] } },
{ "type": "Feature", "properties": { "FEATURE_NAME": "lake loveland", "FEATURE_CLASS": "Reservoir", "STATE_ALPHA": "CO", "STATE_NUMERIC": 8, "COUNTY_NAME": "Larimer", "COUNTY_NUMERIC": 69.0, "PRIM_LAT_DEC": 40.4122332, "PRIM_LONG_DEC": -105.0874086, "ELEV_IN_M": 1527.0, "ELEV_IN_FT": 5010.0, "MAP_NAME": "Loveland" }, "geometry": { "type": "Point", "coordinates": [ -105.087408599999989, 40.4122332 ] } },
{ "type": "Feature", "properties": { "FEATURE_NAME": "loveland", "FEATURE_CLASS": "Populated Place", "STATE_ALPHA": "CO", "STATE_NUMERIC": 8, "COUNTY_NAME": "Larimer", "COUNTY_NUMERIC": 69.0, "PRIM_LAT_DEC": 40.3977612, "PRIM_LONG_DEC": -105.0749801, "ELEV_IN_M": 1519.0, "ELEV_IN_FT": 4984.0, "MAP_NAME": "Loveland" }, "geometry": { "type": "Point", "coordinates": [ -105.0749801, 40.3977612 ] } },
{ "type": "Feature", "properties": { "FEATURE_NAME": "fort collins-loveland municipal airport", "FEATURE_CLASS": "Airport", "STATE_ALPHA": "CO", "STATE_NUMERIC": 8, "COUNTY_NAME": "Larimer", "COUNTY_NUMERIC": 69.0, "PRIM_LAT_DEC": 40.4491873, "PRIM_LONG_DEC": -105.0081687, "ELEV_IN_M": 1526.0, "ELEV_IN_FT": 5007.0, "MAP_NAME": "Loveland" }, "geometry": { "type": "Point", "coordinates": [ -105.0081687, 40.4491873 ] } },
{ "type": "Feature", "properties": { "FEATURE_NAME": "loveland reservoir", "FEATURE_CLASS": "Reservoir", "STATE_ALPHA": "CO", "STATE_NUMERIC": 8, "COUNTY_NAME": "Larimer", "COUNTY_NUMERIC": 69.0, "PRIM_LAT_DEC": 40.3169502, "PRIM_LONG_DEC": -105.0975644, "ELEV_IN_M": 1546.0, "ELEV_IN_FT": 5072.0, "MAP_NAME": "Berthoud" }, "geometry": { "type": "Point", "coordinates": [ -105.09756440000001, 40.3169502 ] } },
{ "type": "Feature", "properties": { "FEATURE_NAME": "clover basin reservoir", "FEATURE_CLASS": "Reservoir", "STATE_ALPHA": "CO", "STATE_NUMERIC": 8, "COUNTY_NAME": "Boulder", "COUNTY_NUMERIC": 13.0, "PRIM_LAT_DEC": 40.1535736, "PRIM_LONG_DEC": -105.1903753, "ELEV_IN_M": 1551.0, "ELEV_IN_FT": 5089.0, "MAP_NAME": "Hygiene" }, "geometry": { "type": "Point", "coordinates": [ -105.1903753, 40.1535736 ] } },
{ "type": "Feature", "properties": { "FEATURE_NAME": "clover basin ditch", "FEATURE_CLASS": "Canal", "STATE_ALPHA": "CO", "STATE_NUMERIC": 8, "COUNTY_NAME": "Boulder", "COUNTY_NUMERIC": 13.0, "PRIM_LAT_DEC": 40.1499851, "PRIM_LONG_DEC": -105.1688745, "ELEV_IN_M": 1542.0, "ELEV_IN_FT": 5059.0, "MAP_NAME": "Hygiene" }, "geometry": { "type": "Point", "coordinates": [ -105.168874500000015, 40.1499851 ] } },
{ "type": "Feature", "properties": { "FEATURE_NAME": "loveland mountain", "FEATURE_CLASS": "Summit", "STATE_ALPHA": "CO", "STATE_NUMERIC": 8, "COUNTY_NAME": "Park", "COUNTY_NUMERIC": 93.0, "PRIM_LAT_DEC": 39.3084437, "PRIM_LONG_DEC": -106.1397409, "ELEV_IN_M": 4176.0, "ELEV_IN_FT": 13701.0, "MAP_NAME": "Climax" }, "geometry": { "type": "Point", "coordinates": [ -106.1397409, 39.3084437 ] } },
{ "type": "Feature", "properties": { "FEATURE_NAME": "loveland pass", "FEATURE_CLASS": "Gap", "STATE_ALPHA": "CO", "STATE_NUMERIC": 8, "COUNTY_NAME": "Summit", "COUNTY_NUMERIC": 117.0, "PRIM_LAT_DEC": 39.6635979, "PRIM_LONG_DEC": -105.8791783, "ELEV_IN_M": 3656.0, "ELEV_IN_FT": 11995.0, "MAP_NAME": "Loveland Pass" }, "geometry": { "type": "Point", "coordinates": [ -105.8791783, 39.6635979 ] } },
{ "type": "Feature", "properties": { "FEATURE_NAME": "clover knoll ditch", "FEATURE_CLASS": "Canal", "STATE_ALPHA": "CO", "STATE_NUMERIC": 8, "COUNTY_NAME": "Jefferson", "COUNTY_NUMERIC": 59.0, "PRIM_LAT_DEC": 39.6935984, "PRIM_LONG_DEC": -105.0772068, "ELEV_IN_M": 1684.0, "ELEV_IN_FT": 5525.0, "MAP_NAME": "Fort Logan" }, "geometry": { "type": "Point", "coordinates": [ -105.0772068, 39.6935984 ] } },
{ "type": "Feature", "properties": { "FEATURE_NAME": "lovell gulch", "FEATURE_CLASS": "Valley", "STATE_ALPHA": "CO", "STATE_NUMERIC": 8, "COUNTY_NAME": "Teller", "COUNTY_NUMERIC": 119.0, "PRIM_LAT_DEC": 39.0142531, "PRIM_LONG_DEC": -105.0660451, "ELEV_IN_M": 2524.0, "ELEV_IN_FT": 8281.0, "MAP_NAME": "Mount Deception" }, "geometry": { "type": "Point", "coordinates": [ -105.066045099999982, 39.0142531 ] } },
{ "type": "Feature", "properties": { "FEATURE_NAME": "love lake", "FEATURE_CLASS": "Lake", "STATE_ALPHA": "CO", "STATE_NUMERIC": 8, "COUNTY_NAME": "Mesa", "COUNTY_NUMERIC": 77.0, "PRIM_LAT_DEC": 38.5326585, "PRIM_LONG_DEC": -108.4632795, "ELEV_IN_M": 2519.0, "ELEV_IN_FT": 8264.0, "MAP_NAME": "Kelso Point" }, "geometry": { "type": "Point", "coordinates": [ -108.4632795, 38.5326585 ] } },
{ "type": "Feature", "properties": { "FEATURE_NAME": "south love mesa bench", "FEATURE_CLASS": "Bench", "STATE_ALPHA": "CO", "STATE_NUMERIC": 8, "COUNTY_NAME": "Mesa", "COUNTY_NUMERIC": 77.0, "PRIM_LAT_DEC": 38.5263767, "PRIM_LONG_DEC": -108.442309, "ELEV_IN_M": 2462.0, "ELEV_IN_FT": 8077.0, "MAP_NAME": "Kelso Point" }, "geometry": { "type": "Point", "coordinates": [ -108.442309, 38.5263767 ] } },
{ "type": "Feature", "properties": { "FEATURE_NAME": "love gulch", "FEATURE_CLASS": "Valley", "STATE_ALPHA": "CO", "STATE_NUMERIC": 8, "COUNTY_NAME": "Delta", "COUNTY_NUMERIC": 29.0, "PRIM_LAT_DEC": 38.850355, "PRIM_LONG_DEC": -107.6583115, "ELEV_IN_M": 1695.0, "ELEV_IN_FT": 5561.0, "MAP_NAME": "Hotchkiss" }, "geometry": { "type": "Point", "coordinates": [ -107.6583115, 38.850355 ] } },
{ "type": "Feature", "properties": { "FEATURE_NAME": "love lake", "FEATURE_CLASS": "Reservoir", "STATE_ALPHA": "CO", "STATE_NUMERIC": 8, "COUNTY_NAME": "Mineral", "COUNTY_NUMERIC": 79.0, "PRIM_LAT_DEC": 37.6640325, "PRIM_LONG_DEC": -107.0262507, "ELEV_IN_M": 3055.0, "ELEV_IN_FT": 10023.0, "MAP_NAME": "Workman Creek" }, "geometry": { "type": "Point", "coordinates": [ -107.0262507, 37.6640325 ] } },
{ "type": "Feature", "properties": { "FEATURE_NAME": "clover mountain", "FEATURE_CLASS": "Summit", "STATE_ALPHA": "CO", "STATE_NUMERIC": 8, "COUNTY_NAME": "Chaffee", "COUNTY_NUMERIC": 15.0, "PRIM_LAT_DEC": 38.5683217, "PRIM_LONG_DEC": -106.344707, "ELEV_IN_M": 3945.0, "ELEV_IN_FT": 12943.0, "MAP_NAME": "Garfield" }, "geometry": { "type": "Point", "coordinates": [ -106.344707, 38.5683217 ] } },
{ "type": "Feature", "properties": { "FEATURE_NAME": "clover creek", "FEATURE_CLASS": "Stream", "STATE_ALPHA": "CO", "STATE_NUMERIC": 8, "COUNTY_NAME": "Saguache", "COUNTY_NUMERIC": 109.0, "PRIM_LAT_DEC": 38.3786095, "PRIM_LONG_DEC": -106.0405711, "ELEV_IN_M": 2592.0, "ELEV_IN_FT": 8504.0, "MAP_NAME": "Poncha Pass" }, "geometry": { "type": "Point", "coordinates": [ -106.0405711, 38.3786095 ] } },
{ "type": "Feature", "properties": { "FEATURE_NAME": "cloverdale basin", "FEATURE_CLASS": "Basin", "STATE_ALPHA": "CO", "STATE_NUMERIC": 8, "COUNTY_NAME": "Custer", "COUNTY_NUMERIC": 27.0, "PRIM_LAT_DEC": 38.2305541, "PRIM_LONG_DEC": -105.7352849, "ELEV_IN_M": 3502.0, "ELEV_IN_FT": 11489.0, "MAP_NAME": "Electric Peak" }, "geometry": { "type": "Point", "coordinates": [ -105.735284900000011, 38.2305541 ] } },
{ "type": "Feature", "properties": { "FEATURE_NAME": "cloverdale mine", "FEATURE_CLASS": "Mine", "STATE_ALPHA": "CO", "STATE_NUMERIC": 8, "COUNTY_NAME": "Custer", "COUNTY_NUMERIC": 27.0, "PRIM_LAT_DEC": 38.2347207, "PRIM_LONG_DEC": -105.7277846, "ELEV_IN_M": 3537.0, "ELEV_IN_FT": 11604.0, "MAP_NAME": "Electric Peak" }, "geometry": { "type": "Point", "coordinates": [ -105.7277846, 38.2347207 ] } },
{ "type": "Feature", "properties": { "FEATURE_NAME": "love ranch", "FEATURE_CLASS": "Locale", "STATE_ALPHA": "CO", "STATE_NUMERIC": 8, "COUNTY_NAME": "El Paso", "COUNTY_NUMERIC": 41.0, "PRIM_LAT_DEC": 38.6930512, "PRIM_LONG_DEC": -104.2732951, "ELEV_IN_M": 1758.0, "ELEV_IN_FT": 5768.0, "MAP_NAME": "Hanover NE" }, "geometry": { "type": "Point", "coordinates": [ -104.273295099999984, 38.6930512 ] } },
{ "type": "Feature", "properties": { "FEATURE_NAME": "lovers leap", "FEATURE_CLASS": "Cliff", "STATE_ALPHA": "CO", "STATE_NUMERIC": 8, "COUNTY_NAME": "Huerfano", "COUNTY_NUMERIC": 55.0, "PRIM_LAT_DEC": 37.4222358, "PRIM_LONG_DEC": -104.9761084, "ELEV_IN_M": 2524.0, "ELEV_IN_FT": 8281.0, "MAP_NAME": "Spanish Peaks" }, "geometry": { "type": "Point", "coordinates": [ -104.9761084, 37.4222358 ] } },
{ "type": "Feature", "properties": { "FEATURE_NAME": "clover meadow school", "FEATURE_CLASS": "School", "STATE_ALPHA": "CO", "STATE_NUMERIC": 8, "COUNTY_NAME": "Prowers", "COUNTY_NUMERIC": 99.0, "PRIM_LAT_DEC": 38.1797307, "PRIM_LONG_DEC": -102.6326938, "ELEV_IN_M": 1154.0, "ELEV_IN_FT": 3786.0, "MAP_NAME": "Wiley" }, "geometry": { "type": "Point", "coordinates": [ -102.6326938, 38.1797307 ] } },
{ "type": "Feature", "properties": { "FEATURE_NAME": "glover spring", "FEATURE_CLASS": "Spring", "STATE_ALPHA": "CO", "STATE_NUMERIC": 8, "COUNTY_NAME": "Las Animas", "COUNTY_NUMERIC": 71.0, "PRIM_LAT_DEC": 37.4833492, "PRIM_LONG_DEC": -103.5560561, "ELEV_IN_M": 1663.0, "ELEV_IN_FT": 5456.0, "MAP_NAME": "Plum Canyon" }, "geometry": { "type": "Point", "coordinates": [ -103.5560561, 37.4833492 ] } },
{ "type": "Feature", "properties": { "FEATURE_NAME": "clover basin dam", "FEATURE_CLASS": "Dam", "STATE_ALPHA": "CO", "STATE_NUMERIC": 8, "COUNTY_NAME": "Boulder", "COUNTY_NUMERIC": 13.0, "PRIM_LAT_DEC": 40.1522073, "PRIM_LONG_DEC": -105.1863751, "ELEV_IN_M": 1550.0, "ELEV_IN_FT": 5085.0, "MAP_NAME": "Hygiene" }, "geometry": { "type": "Point", "coordinates": [ -105.1863751, 40.1522073 ] } },
{ "type": "Feature", "properties": { "FEATURE_NAME": "love lake dam", "FEATURE_CLASS": "Dam", "STATE_ALPHA": "CO", "STATE_NUMERIC": 8, "COUNTY_NAME": "Mineral", "COUNTY_NUMERIC": 79.0, "PRIM_LAT_DEC": 37.7699991, "PRIM_LONG_DEC": -107.3189442, "ELEV_IN_M": 3526.0, "ELEV_IN_FT": 11568.0, "MAP_NAME": "Finger Mesa" }, "geometry": { "type": "Point", "coordinates": [ -107.3189442, 37.7699991 ] } },
{ "type": "Feature", "properties": { "FEATURE_NAME": "love lake", "FEATURE_CLASS": "Reservoir", "STATE_ALPHA": "CO", "STATE_NUMERIC": 8, "COUNTY_NAME": "Mineral", "COUNTY_NUMERIC": 79.0, "PRIM_LAT_DEC": 37.7699991, "PRIM_LONG_DEC": -107.3189442, "ELEV_IN_M": 3526.0, "ELEV_IN_FT": 11568.0, "MAP_NAME": "Finger Mesa" }, "geometry": { "type": "Point", "coordinates": [ -107.3189442, 37.7699991 ] } },
{ "type": "Feature", "properties": { "FEATURE_NAME": "loveland water storage dam", "FEATURE_CLASS": "Dam", "STATE_ALPHA": "CO", "STATE_NUMERIC": 8, "COUNTY_NAME": "Larimer", "COUNTY_NUMERIC": 69.0, "PRIM_LAT_DEC": 40.4247077, "PRIM_LONG_DEC": -105.2105896, "ELEV_IN_M": 1588.0, "ELEV_IN_FT": 5210.0, "MAP_NAME": "Masonville" }, "geometry": { "type": "Point", "coordinates": [ -105.2105896, 40.4247077 ] } },
{ "type": "Feature", "properties": { "FEATURE_NAME": "loveland water storage reservoir", "FEATURE_CLASS": "Reservoir", "STATE_ALPHA": "CO", "STATE_NUMERIC": 8, "COUNTY_NAME": "Larimer", "COUNTY_NUMERIC": 69.0, "PRIM_LAT_DEC": 40.425083, "PRIM_LONG_DEC": -105.2113297, "ELEV_IN_M": 1596.0, "ELEV_IN_FT": 5236.0, "MAP_NAME": "Masonville" }, "geometry": { "type": "Point", "coordinates": [ -105.2113297, 40.425083 ] } },
{ "type": "Feature", "properties": { "FEATURE_NAME": "lake loveland dam", "FEATURE_CLASS": "Dam", "STATE_ALPHA": "CO", "STATE_NUMERIC": 8, "COUNTY_NAME": "Larimer", "COUNTY_NUMERIC": 69.0, "PRIM_LAT_DEC": 40.4049828, "PRIM_LONG_DEC": -106.0872432, "ELEV_IN_M": 2739.0, "ELEV_IN_FT": 8986.0, "MAP_NAME": "Jack Creek Ranch" }, "geometry": { "type": "Point", "coordinates": [ -106.0872432, 40.4049828 ] } },
{ "type": "Feature", "properties": { "FEATURE_NAME": "lake loveland", "FEATURE_CLASS": "Reservoir", "STATE_ALPHA": "CO", "STATE_NUMERIC": 8, "COUNTY_NAME": "Larimer", "COUNTY_NUMERIC": 69.0, "PRIM_LAT_DEC": 40.4049828, "PRIM_LONG_DEC": -106.0872432, "ELEV_IN_M": 2739.0, "ELEV_IN_FT": 8986.0, "MAP_NAME": "Jack Creek Ranch" }, "geometry": { "type": "Point", "coordinates": [ -106.0872432, 40.4049828 ] } },
{ "type": "Feature", "properties": { "FEATURE_NAME": "loveland dam", "FEATURE_CLASS": "Dam", "STATE_ALPHA": "CO", "STATE_NUMERIC": 8, "COUNTY_NAME": "Larimer", "COUNTY_NUMERIC": 69.0, "PRIM_LAT_DEC": 40.3133174, "PRIM_LONG_DEC": -105.0991485, "ELEV_IN_M": 1547.0, "ELEV_IN_FT": 5075.0, "MAP_NAME": "Berthoud" }, "geometry": { "type": "Point", "coordinates": [ -105.099148500000013, 40.3133174 ] } },
{ "type": "Feature", "properties": { "FEATURE_NAME": "loveland and greeley canal", "FEATURE_CLASS": "Canal", "STATE_ALPHA": "CO", "STATE_NUMERIC": 8, "COUNTY_NAME": "Larimer", "COUNTY_NUMERIC": 69.0, "PRIM_LAT_DEC": 40.3797045, "PRIM_LONG_DEC": -104.8838618, "ELEV_IN_M": 1506.0, "ELEV_IN_FT": 4941.0, "MAP_NAME": "Windsor" }, "geometry": { "type": "Point", "coordinates": [ -104.8838618, 40.3797045 ] } },
{ "type": "Feature", "properties": { "FEATURE_NAME": "love and white ditch", "FEATURE_CLASS": "Canal", "STATE_ALPHA": "CO", "STATE_NUMERIC": 8, "COUNTY_NAME": "Eagle", "COUNTY_NUMERIC": 37.0, "PRIM_LAT_DEC": 39.6324857, "PRIM_LONG_DEC": -106.776982, "ELEV_IN_M": 2117.0, "ELEV_IN_FT": 6945.0, "MAP_NAME": "Eagle" }, "geometry": { "type": "Point", "coordinates": [ -106.776982, 39.6324857 ] } },
{ "type": "Feature", "properties": { "FEATURE_NAME": "cloverly", "FEATURE_CLASS": "Populated Place", "STATE_ALPHA": "CO", "STATE_NUMERIC": 8, "COUNTY_NAME": "Weld", "COUNTY_NUMERIC": 123.0, "PRIM_LAT_DEC": 40.4566474, "PRIM_LONG_DEC": -104.6263503, "ELEV_IN_M": 1431.0, "ELEV_IN_FT": 4695.0, "MAP_NAME": "Greeley" }, "geometry": { "type": "Point", "coordinates": [ -104.6263503, 40.4566474 ] } },
{ "type": "Feature", "properties": { "FEATURE_NAME": "north love mesa bench", "FEATURE_CLASS": "Bench", "STATE_ALPHA": "CO", "STATE_NUMERIC": 8, "COUNTY_NAME": "Mesa", "COUNTY_NUMERIC": 77.0, "PRIM_LAT_DEC": 38.5299879, "PRIM_LONG_DEC": -108.4698102, "ELEV_IN_M": 2505.0, "ELEV_IN_FT": 8218.0, "MAP_NAME": "Kelso Point" }, "geometry": { "type": "Point", "coordinates": [ -108.4698102, 38.5299879 ] } },
{ "type": "Feature", "properties": { "FEATURE_NAME": "love mesa", "FEATURE_CLASS": "Summit", "STATE_ALPHA": "CO", "STATE_NUMERIC": 8, "COUNTY_NAME": "Mesa", "COUNTY_NUMERIC": 77.0, "PRIM_LAT_DEC": 38.5013774, "PRIM_LONG_DEC": -108.5284238, "ELEV_IN_M": 2764.0, "ELEV_IN_FT": 9068.0, "MAP_NAME": "Snipe Mountain" }, "geometry": { "type": "Point", "coordinates": [ -108.528423799999985, 38.5013774 ] } },
{ "type": "Feature", "properties": { "FEATURE_NAME": "loveland lateral", "FEATURE_CLASS": "Canal", "STATE_ALPHA": "CO", "STATE_NUMERIC": 8, "COUNTY_NAME": "Rio Grande", "COUNTY_NUMERIC": 105.0, "PRIM_LAT_DEC": 37.5061142, "PRIM_LONG_DEC": -105.9930801, "ELEV_IN_M": 2312.0, "ELEV_IN_FT": 7585.0, "MAP_NAME": "Mount Pleasant School" }, "geometry": { "type": "Point", "coordinates": [ -105.9930801, 37.5061142 ] } },
{ "type": "Feature", "properties": { "FEATURE_NAME": "clover ditch", "FEATURE_CLASS": "Canal", "STATE_ALPHA": "CO", "STATE_NUMERIC": 8, "COUNTY_NAME": "El Paso", "COUNTY_NUMERIC": 41.0, "PRIM_LAT_DEC": 38.7727713, "PRIM_LONG_DEC": -104.7991396, "ELEV_IN_M": 1793.0, "ELEV_IN_FT": 5882.0, "MAP_NAME": "Colorado Springs" }, "geometry": { "type": "Point", "coordinates": [ -104.7991396, 38.7727713 ] } },
{ "type": "Feature", "properties": { "FEATURE_NAME": "clover meadow ditch", "FEATURE_CLASS": "Canal", "STATE_ALPHA": "CO", "STATE_NUMERIC": 8, "COUNTY_NAME": "Prowers", "COUNTY_NUMERIC": 99.0, "PRIM_LAT_DEC": 38.1722306, "PRIM_LONG_DEC": -102.6449163, "ELEV_IN_M": 1168.0, "ELEV_IN_FT": 3832.0, "MAP_NAME": "Wiley" }, "geometry": { "type": "Point", "coordinates": [ -102.6449163, 38.1722306 ] } },
{ "type": "Feature", "properties": { "FEATURE_NAME": "klov-am (loveland)", "FEATURE_CLASS": "Tower", "STATE_ALPHA": "CO", "STATE_NUMERIC": 8, "COUNTY_NAME": "Larimer", "COUNTY_NUMERIC": 69.0, "PRIM_LAT_DEC": 40.3919279, "PRIM_LONG_DEC": -105.0980366, "ELEV_IN_M": 1514.0, "ELEV_IN_FT": 4967.0, "MAP_NAME": "Loveland" }, "geometry": { "type": "Point", "coordinates": [ -105.098036599999986, 40.3919279 ] } },
{ "type": "Feature", "properties": { "FEATURE_NAME": "ktrr-fm (loveland)", "FEATURE_CLASS": "Tower", "STATE_ALPHA": "CO", "STATE_NUMERIC": 8, "COUNTY_NAME": "Weld", "COUNTY_NUMERIC": 123.0, "PRIM_LAT_DEC": 40.4552599, "PRIM_LONG_DEC": -104.9241405, "ELEV_IN_M": 1476.0, "ELEV_IN_FT": 4842.0, "MAP_NAME": "Windsor" }, "geometry": { "type": "Point", "coordinates": [ -104.9241405, 40.4552599 ] } },
{ "type": "Feature", "properties": { "FEATURE_NAME": "clover field", "FEATURE_CLASS": "Park", "STATE_ALPHA": "CT", "STATE_NUMERIC": 9, "COUNTY_NAME": "Fairfield", "COUNTY_NUMERIC": 1.0, "PRIM_LAT_DEC": 41.1792637, "PRIM_LONG_DEC": -73.1492769, "ELEV_IN_M": 3.0, "ELEV_IN_FT": 10.0, "MAP_NAME": "Bridgeport" }, "geometry": { "type": "Point", "coordinates": [ -73.1492769, 41.1792637 ] } },
{ "type": "Feature", "properties": { "FEATURE_NAME": "clover street elementary school", "FEATURE_CLASS": "School", "STATE_ALPHA": "CT", "STATE_NUMERIC": 9, "COUNTY_NAME": "Hartford", "COUNTY_NUMERIC": 3.0, "PRIM_LAT_DEC": 41.8328766, "PRIM_LONG_DEC": -72.6628697, "ELEV_IN_M": 27.0, "ELEV_IN_FT": 89.0, "MAP_NAME": "Hartford North" }, "geometry": { "type": "Point", "coordinates": [ -72.6628697, 41.8328766 ] } },
{ "type": "Feature", "properties": { "FEATURE_NAME": "glovers hill", "FEATURE_CLASS": "Summit", "STATE_ALPHA": "CT", "STATE_NUMERIC": 9, "COUNTY_NAME": "Hartford", "COUNTY_NUMERIC": 3.0, "PRIM_LAT_DEC": 42.0231512, "PRIM_LONG_DEC": -72.6406458, "ELEV_IN_M": 55.0, "ELEV_IN_FT": 180.0, "MAP_NAME": "West Springfield" }, "geometry": { "type": "Point", "coordinates": [ -72.6406458, 42.0231512 ] } },
{ "type": "Feature", "properties": { "FEATURE_NAME": "lovers island", "FEATURE_CLASS": "Island", "STATE_ALPHA": "CT", "STATE_NUMERIC": 9, "COUNTY_NAME": "New Haven", "COUNTY_NUMERIC": 9.0, "PRIM_LAT_DEC": 41.2548192, "PRIM_LONG_DEC": -72.8312104, "ELEV_IN_M": 0.0, "ELEV_IN_FT": 0.0, "MAP_NAME": "Branford" }, "geometry": { "type": "Point", "coordinates": [ -72.8312104, 41.2548192 ] } },
{ "type": "Feature", "properties": { "FEATURE_NAME": "lovers lane brook", "FEATURE_CLASS": "Stream", "STATE_ALPHA": "CT", "STATE_NUMERIC": 9, "COUNTY_NAME": "Litchfield", "COUNTY_NUMERIC": 5.0, "PRIM_LAT_DEC": 41.8200962, "PRIM_LONG_DEC": -73.1498337, "ELEV_IN_M": 220.0, "ELEV_IN_FT": 722.0, "MAP_NAME": "West Torrington" }, "geometry": { "type": "Point", "coordinates": [ -73.1498337, 41.8200962 ] } },
{ "type": "Feature", "properties": { "FEATURE_NAME": "lovers leap", "FEATURE_CLASS": "Cliff", "STATE_ALPHA": "CT", "STATE_NUMERIC": 9, "COUNTY_NAME": "Litchfield", "COUNTY_NUMERIC": 5.0, "PRIM_LAT_DEC": 41.5403725, "PRIM_LONG_DEC": -73.4051207, "ELEV_IN_M": 57.0, "ELEV_IN_FT": 187.0, "MAP_NAME": "New Milford" }, "geometry": { "type": "Point", "coordinates": [ -73.405120700000012, 41.5403725 ] } },
{ "type": "Feature", "properties": { "FEATURE_NAME": "love creek", "FEATURE_CLASS": "Stream", "STATE_ALPHA": "DE", "STATE_NUMERIC": 10, "COUNTY_NAME": "Sussex", "COUNTY_NUMERIC": 5.0, "PRIM_LAT_DEC": 38.6937234, "PRIM_LONG_DEC": -75.1501839, "ELEV_IN_M": 0.0, "ELEV_IN_FT": 0.0, "MAP_NAME": "Fairmount" }, "geometry": { "type": "Point", "coordinates": [ -75.150180312918749, 38.693727028697516 ] } },
{ "type": "Feature", "properties": { "FEATURE_NAME": "the pullover", "FEATURE_CLASS": "Cape", "STATE_ALPHA": "DE", "STATE_NUMERIC": 10, "COUNTY_NAME": "Sussex", "COUNTY_NUMERIC": 5.0, "PRIM_LAT_DEC": 38.63289, "PRIM_LONG_DEC": -75.1007376, "ELEV_IN_M": 0.0, "ELEV_IN_FT": 0.0, "MAP_NAME": "Rehoboth Beach" }, "geometry": { "type": "Point", "coordinates": [ -75.10073341348668, 38.632894022850714 ] } },
{ "type": "Feature", "properties": { "FEATURE_NAME": "saint john the beloved school", "FEATURE_CLASS": "School", "STATE_ALPHA": "DE", "STATE_NUMERIC": 10, "COUNTY_NAME": "New Castle", "COUNTY_NUMERIC": 3.0, "PRIM_LAT_DEC": 39.7347535, "PRIM_LONG_DEC": -75.6578815, "ELEV_IN_M": 45.0, "ELEV_IN_FT": 148.0, "MAP_NAME": "Newark East" }, "geometry": { "type": "Point", "coordinates": [ -75.657879699665358, 39.734754825846935 ] } },
{ "type": "Feature", "properties": { "FEATURE_NAME": "saint john the beloved catholic church", "FEATURE_CLASS": "Church", "STATE_ALPHA": "DE", "STATE_NUMERIC": 10, "COUNTY_NAME": "New Castle", "COUNTY_NUMERIC": 3.0, "PRIM_LAT_DEC": 39.7345567, "PRIM_LONG_DEC": -75.6577073, "ELEV_IN_M": 44.0, "ELEV_IN_FT": 144.0, "MAP_NAME": "Newark East" }, "geometry": { "type": "Point", "coordinates": [ -75.657705499068243, 39.73455802617304 ] } },
{ "type": "Feature", "properties": { "FEATURE_NAME": "love creek bridge", "FEATURE_CLASS": "Bridge", "STATE_ALPHA": "DE", "STATE_NUMERIC": 10, "COUNTY_NAME": "Sussex", "COUNTY_NUMERIC": 5.0, "PRIM_LAT_DEC": 38.7034456, "PRIM_LONG_DEC": -75.1621288, "ELEV_IN_M": 0.0, "ELEV_IN_FT": 0.0, "MAP_NAME": "Fairmount" }, "geometry": { "type": "Point", "coordinates": [ -75.16212528969028, 38.703449155873045 ] } },
{ "type": "Feature", "properties": { "FEATURE_NAME": "loveville", "FEATURE_CLASS": "Populated Place", "STATE_ALPHA": "DE", "STATE_NUMERIC": 10, "COUNTY_NAME": "New Castle", "COUNTY_NUMERIC": 3.0, "PRIM_LAT_DEC": 39.7709451, "PRIM_LONG_DEC": -75.6643751, "ELEV_IN_M": 100.0, "ELEV_IN_FT": 328.0, "MAP_NAME": "Kennett Square" }, "geometry": { "type": "Point", "coordinates": [ -75.664373385102422, 39.770946395314951 ] } },
{ "type": "Feature", "properties": { "FEATURE_NAME": "love temple church", "FEATURE_CLASS": "Church", "STATE_ALPHA": "DE", "STATE_NUMERIC": 10, "COUNTY_NAME": "Kent", "COUNTY_NUMERIC": 1.0, "PRIM_LAT_DEC": 39.1401124, "PRIM_LONG_DEC": -75.5257571, "ELEV_IN_M": 4.0, "ELEV_IN_FT": 13.0, "MAP_NAME": "Dover" }, "geometry": { "type": "Point", "coordinates": [ -75.525754679936881, 39.140114779086396 ] } },
{ "type": "Feature", "properties": { "FEATURE_NAME": "clover butte", "FEATURE_CLASS": "Summit", "STATE_ALPHA": "CA", "STATE_NUMERIC": 6, "COUNTY_NAME": "Lassen", "COUNTY_NUMERIC": 35.0, "PRIM_LAT_DEC": 40.4823892, "PRIM_LONG_DEC": -121.0510744, "ELEV_IN_M": 1882.0, "ELEV_IN_FT": 6174.0, "MAP_NAME": "Swain Mountain" }, "geometry": { "type": "Point", "coordinates": [ -121.0510744, 40.4823892 ] } },
{ "type": "Feature", "properties": { "FEATURE_NAME": "clover creek", "FEATURE_CLASS": "Stream", "STATE_ALPHA": "CA", "STATE_NUMERIC": 6, "COUNTY_NAME": "Calaveras", "COUNTY_NUMERIC": 9.0, "PRIM_LAT_DEC": 37.9702028, "PRIM_LONG_DEC": -120.685207, "ELEV_IN_M": 266.0, "ELEV_IN_FT": 873.0, "MAP_NAME": "Copperopolis" }, "geometry": { "type": "Point", "coordinates": [ -120.685207, 37.9702028 ] } },
{ "type": "Feature", "properties": { "FEATURE_NAME": "clover creek", "FEATURE_CLASS": "Stream", "STATE_ALPHA": "CA", "STATE_NUMERIC": 6, "COUNTY_NAME": "Tehama", "COUNTY_NUMERIC": 103.0, "PRIM_LAT_DEC": 40.1168204, "PRIM_LONG_DEC": -122.4602809, "ELEV_IN_M": 164.0, "ELEV_IN_FT": 538.0, "MAP_NAME": "Red Bank" }, "geometry": { "type": "Point", "coordinates": [ -122.460280900000015, 40.1168204 ] } },
{ "type": "Feature", "properties": { "FEATURE_NAME": "clover creek", "FEATURE_CLASS": "Stream", "STATE_ALPHA": "CA", "STATE_NUMERIC": 6, "COUNTY_NAME": "Shasta", "COUNTY_NUMERIC": 89.0, "PRIM_LAT_DEC": 40.4723745, "PRIM_LONG_DEC": -122.2925038, "ELEV_IN_M": 123.0, "ELEV_IN_FT": 404.0, "MAP_NAME": "Cottonwood" }, "geometry": { "type": "Point", "coordinates": [ -122.2925038, 40.4723745 ] } },
{ "type": "Feature", "properties": { "FEATURE_NAME": "clover gulch", "FEATURE_CLASS": "Valley", "STATE_ALPHA": "CA", "STATE_NUMERIC": 6, "COUNTY_NAME": "Trinity", "COUNTY_NUMERIC": 105.0, "PRIM_LAT_DEC": 40.1595939, "PRIM_LONG_DEC": -123.2186313, "ELEV_IN_M": 898.0, "ELEV_IN_FT": 2946.0, "MAP_NAME": "Swim Ridge" }, "geometry": { "type": "Point", "coordinates": [ -123.218631300000013, 40.1595939 ] } },
{ "type": "Feature", "properties": { "FEATURE_NAME": "clover patch", "FEATURE_CLASS": "Flat", "STATE_ALPHA": "CA", "STATE_NUMERIC": 6, "COUNTY_NAME": "Mono", "COUNTY_NUMERIC": 51.0, "PRIM_LAT_DEC": 37.6974323, "PRIM_LONG_DEC": -118.62818, "ELEV_IN_M": 2391.0, "ELEV_IN_FT": 7844.0, "MAP_NAME": "Watterson Canyon" }, "geometry": { "type": "Point", "coordinates": [ -118.62818, 37.6974323 ] } },